$GPGGA,063357.263,5312.222,N,00548.053,E,1,12,1.0,0.0,M,0.0,M,,*65
$GPGSA,A,3,01,02,03,04,05,06,07,08,09,10,11,12,1.0,1.0,1.0*30
$GPRMC,063357.263,A,5312.222,N,00548.053,E,058.3,111.2,210318,000.0,W*75
$GPGGA,063358.263,5312.214,N,00548.075,E,1,12,1.0,0.0,M,0.0,M,,*6B
$GPGSA,A,3,01,02,03,04,05,06,07,08,09,10,11,12,1.0,1.0,1.0*30
$GPRMC,063358.263,A,5312.214,N,00548.075,E,058.3,111.2,210318,000.0,W*7B
$GPGGA,063359.263,5312.205,N,00548.098,E,1,12,1.0,0.0,M,0.0,M,,*69
$GPGSA,A,3,01,02,03,04,05,06,07,08,09,10,11,12,1.0,1.0,1.0*30
$GPRMC,063359.263,A,5312.205,N,00548.098,E,058.3,111.2,210318,000.0,W*79
$GPGGA,063400.263,5312.196,N,00548.121,E,1,12,1.0,0.0,M,0.0,M,,*68
$GPGSA,A,3,01,02,03,04,05,06,07,08,09,10,11,12,1.0,1.0,1.0*30
$GPRMC,063400.263,A,5312.196,N,00548.121,E,058.3,111.2,210318,000.0,W*78
$GPGGA,063401.263,5312.187,N,00548.143,E,1,12,1.0,0.0,M,0.0,M,,*6D
$GPGSA,A,3,01,02,03,04,05,06,07,08,09,10,11,12,1.0,1.0,1.0*30
$GPRMC,063401.263,A,5312.187,N,00548.143,E,058.3,111.2,210318,000.0,W*7D
$GPGGA,063402.263,5312.179,N,00548.166,E,1,12,1.0,0.0,M,0.0,M,,*68
$GPGSA,A,3,01,02,03,04,05,06,07,08,09,10,11,12,1.0,1.0,1.0*30
$GPRMC,063402.263,A,5312.179,N,00548.166,E,058.3,111.2,210318,000.0,W*78
$GPGGA,063403.263,5312.170,N,00548.189,E,1,12,1.0,0.0,M,0.0,M,,*61
$GPGSA,A,3,01,02,03,04,05,06,07,08,09,10,11,12,1.0,1.0,1.0*30
$GPRMC,063403.263,A,5312.170,N,00548.189,E,058.3,249.4,210318,000.0,W*79
$GPGGA,063404.263,5312.161,N,00548.166,E,1,12,1.0,0.0,M,0.0,M,,*67
$GPGSA,A,3,01,02,03,04,05,06,07,08,09,10,11,12,1.0,1.0,1.0*30
$GPRMC,063404.263,A,5312.161,N,00548.166,E,058.3,249.4,210318,000.0,W*7F
$GPGGA,063405.263,5312.153,N,00548.143,E,1,12,1.0,0.0,M,0.0,M,,*60
$GPGSA,A,3,01,02,03,04,05,06,07,08,09,10,11,12,1.0,1.0,1.0*30
$GPRMC,063405.263,A,5312.153,N,00548.143,E,058.3,249.4,210318,000.0,W*78
$GPGGA,063406.263,5312.144,N,00548.120,E,1,12,1.0,0.0,M,0.0,M,,*60
$GPGSA,A,3,01,02,03,04,05,06,07,08,09,10,11,12,1.0,1.0,1.0*30
$GPRMC,063406.263,A,5312.144,N,00548.120,E,058.3,249.4,210318,000.0,W*78
$GPGGA,063407.263,5312.135,N,00548.097,E,1,12,1.0,0.0,M,0.0,M,,*6A
$GPGSA,A,3,01,02,03,04,05,06,07,08,09,10,11,12,1.0,1.0,1.0*30
$GPRMC,063407.263,A,5312.135,N,00548.097,E,058.3,322.1,210318,000.0,W*7B
$GPGGA,063408.263,5312.150,N,00548.086,E,1,12,1.0,0.0,M,0.0,M,,*66
$GPGSA,A,3,01,02,03,04,05,06,07,08,09,10,11,12,1.0,1.0,1.0*30
$GPRMC,063408.263,A,5312.150,N,00548.086,E,058.3,322.1,210318,000.0,W*77
$GPGGA,063409.263,5312.165,N,00548.074,E,1,12,1.0,0.0,M,0.0,M,,*6C
$GPGSA,A,3,01,02,03,04,05,06,07,08,09,10,11,12,1.0,1.0,1.0*30
$GPRMC,063409.263,A,5312.165,N,00548.074,E,058.3,322.1,210318,000.0,W*7D
$GPGGA,063410.263,5312.179,N,00548.063,E,1,12,1.0,0.0,M,0.0,M,,*6F
$GPGSA,A,3,01,02,03,04,05,06,07,08,09,10,11,12,1.0,1.0,1.0*30
$GPRMC,063410.263,A,5312.179,N,00548.063,E,058.3,322.1,210318,000.0,W*7E
$GPGGA,063411.263,5312.194,N,00548.051,E,1,12,1.0,0.0,M,0.0,M,,*6C
$GPGSA,A,3,01,02,03,04,05,06,07,08,09,10,11,12,1.0,1.0,1.0*30
$GPRMC,063411.263,A,5312.194,N,00548.051,E,058.3,318.3,210318,000.0,W*76
$GPGGA,063412.263,5312.208,N,00548.039,E,1,12,1.0,0.0,M,0.0,M,,*67
$GPGSA,A,3,01,02,03,04,05,06,07,08,09,10,11,12,1.0,1.0,1.0*30
$GPRMC,063412.263,A,5312.208,N,00548.039,E,058.3,141.4,210318,000.0,W*74
$GPGGA,063413.263,5312.194,N,00548.050,E,1,12,1.0,0.0,M,0.0,M,,*6F
$GPGSA,A,3,01,02,03,04,05,06,07,08,09,10,11,12,1.0,1.0,1.0*30
$GPRMC,063413.263,A,5312.194,N,00548.050,E,058.3,141.4,210318,000.0,W*7C
$GPGGA,063414.263,5312.179,N,00548.062,E,1,12,1.0,0.0,M,0.0,M,,*6A
$GPGSA,A,3,01,02,03,04,05,06,07,08,09,10,11,12,1.0,1.0,1.0*30
$GPRMC,063414.263,A,5312.179,N,00548.062,E,058.3,141.4,210318,000.0,W*79
$GPGGA,063415.263,5312.165,N,00548.074,E,1,12,1.0,0.0,M,0.0,M,,*61
$GPGSA,A,3,01,02,03,04,05,06,07,08,09,10,11,12,1.0,1.0,1.0*30
$GPRMC,063415.263,A,5312.165,N,00548.074,E,058.3,141.4,210318,000.0,W*72
$GPGGA,063416.263,5312.150,N,00548.085,E,1,12,1.0,0.0,M,0.0,M,,*6A
$GPGSA,A,3,01,02,03,04,05,06,07,08,09,10,11,12,1.0,1.0,1.0*30
$GPRMC,063416.263,A,5312.150,N,00548.085,E,058.3,141.4,210318,000.0,W*79
$GPGGA,063417.263,5312.135,N,00548.097,E,1,12,1.0,0.0,M,0.0,M,,*6B
$GPGSA,A,3,01,02,03,04,05,06,07,08,09,10,11,12,1.0,1.0,1.0*30
$GPRMC,063417.263,A,5312.135,N,00548.097,E,058.3,069.0,210318,000.0,W*77
$GPGGA,063418.263,5312.144,N,00548.120,E,1,12,1.0,0.0,M,0.0,M,,*6F
$GPGSA,A,3,01,02,03,04,05,06,07,08,09,10,11,12,1.0,1.0,1.0*30
$GPRMC,063418.263,A,5312.144,N,00548.120,E,058.3,069.0,210318,000.0,W*73
$GPGGA,063419.263,5312.153,N,00548.143,E,1,12,1.0,0.0,M,0.0,M,,*6D
$GPGSA,A,3,01,02,03,04,05,06,07,08,09,10,11,12,1.0,1.0,1.0*30
$GPRMC,063419.263,A,5312.153,N,00548.143,E,058.3,069.0,210318,000.0,W*71
$GPGGA,063420.263,5312.161,N,00548.166,E,1,12,1.0,0.0,M,0.0,M,,*61
$GPGSA,A,3,01,02,03,04,05,06,07,08,09,10,11,12,1.0,1.0,1.0*30
$GPRMC,063420.263,A,5312.161,N,00548.166,E,058.3,069.0,210318,000.0,W*7D
$GPGGA,063421.263,5312.170,N,00548.188,E,1,12,1.0,0.0,M,0.0,M,,*60
$GPGSA,A,3,01,02,03,04,05,06,07,08,09,10,11,12,1.0,1.0,1.0*30
$GPRMC,063421.263,A,5312.170,N,00548.188,E,058.3,291.2,210318,000.0,W*7B
$GPGGA,063422.263,5312.179,N,00548.166,E,1,12,1.0,0.0,M,0.0,M,,*6A
$GPGSA,A,3,01,02,03,04,05,06,07,08,09,10,11,12,1.0,1.0,1.0*30
$GPRMC,063422.263,A,5312.179,N,00548.166,E,058.3,291.2,210318,000.0,W*71
$GPGGA,063423.263,5312.188,N,00548.143,E,1,12,1.0,0.0,M,0.0,M,,*62
$GPGSA,A,3,01,02,03,04,05,06,07,08,09,10,11,12,1.0,1.0,1.0*30
$GPRMC,063423.263,A,5312.188,N,00548.143,E,058.3,291.2,210318,000.0,W*79
$GPGGA,063424.263,5312.196,N,00548.120,E,1,12,1.0,0.0,M,0.0,M,,*6F
$GPGSA,A,3,01,02,03,04,05,06,07,08,09,10,11,12,1.0,1.0,1.0*30
$GPRMC,063424.263,A,5312.196,N,00548.120,E,058.3,291.2,210318,000.0,W*74
$GPGGA,063425.263,5312.205,N,00548.097,E,1,12,1.0,0.0,M,0.0,M,,*6A
$GPGSA,A,3,01,02,03,04,05,06,07,08,09,10,11,12,1.0,1.0,1.0*30
$GPRMC,063425.263,A,5312.205,N,00548.097,E,058.3,291.2,210318,000.0,W*71
$GPGGA,063426.263,5312.214,N,00548.075,E,1,12,1.0,0.0,M,0.0,M,,*65
$GPGSA,A,3,01,02,03,04,05,06,07,08,09,10,11,12,1.0,1.0,1.0*30
$GPRMC,063426.263,A,5312.214,N,00548.075,E,058.3,291.2,210318,000.0,W*7E
$GPGGA,063427.263,5312.223,N,00548.052,E,1,12,1.0,0.0,M,0.0,M,,*65
$GPGSA,A,3,01,02,03,04,05,06,07,08,09,10,11,12,1.0,1.0,1.0*30
$GPRMC,063427.263,A,5312.223,N,00548.052,E,058.3,110.7,210318,000.0,W*71
$GPGGA,063428.263,5312.214,N,00548.075,E,1,12,1.0,0.0,M,0.0,M,,*6B
$GPGSA,A,3,01,02,03,04,05,06,07,08,09,10,11,12,1.0,1.0,1.0*30
$GPRMC,063428.263,A,5312.214,N,00548.075,E,058.3,110.7,210318,000.0,W*7F
$GPGGA,063429.263,5312.206,N,00548.098,E,1,12,1.0,0.0,M,0.0,M,,*6A
$GPGSA,A,3,01,02,03,04,05,06,07,08,09,10,11,12,1.0,1.0,1.0*30
$GPRMC,063429.263,A,5312.206,N,00548.098,E,058.3,110.7,210318,000.0,W*7E
$GPGGA,063430.263,5312.197,N,00548.121,E,1,12,1.0,0.0,M,0.0,M,,*6A
$GPGSA,A,3,01,02,03,04,05,06,07,08,09,10,11,12,1.0,1.0,1.0*30
$GPRMC,063430.263,A,5312.197,N,00548.121,E,058.3,110.7,210318,000.0,W*7E
$GPGGA,063431.263,5312.188,N,00548.144,E,1,12,1.0,0.0,M,0.0,M,,*66
$GPGSA,A,3,01,02,03,04,05,06,07,08,09,10,11,12,1.0,1.0,1.0*30
$GPRMC,063431.263,A,5312.188,N,00548.144,E,058.3,110.7,210318,000.0,W*72
$GPGGA,063432.263,5312.180,N,00548.167,E,1,12,1.0,0.0,M,0.0,M,,*6C
$GPGSA,A,3,01,02,03,04,05,06,07,08,09,10,11,12,1.0,1.0,1.0*30
$GPRMC,063432.263,A,5312.180,N,00548.167,E,058.3,110.7,210318,000.0,W*78
$GPGGA,063433.263,5312.171,N,00548.189,E,1,12,1.0,0.0,M,0.0,M,,*63
$GPGSA,A,3,01,02,03,04,05,06,07,08,09,10,11,12,1.0,1.0,1.0*30
$GPRMC,063433.263,A,5312.171,N,00548.189,E,058.3,248.5,210318,000.0,W*7B
$GPGGA,063434.263,5312.162,N,00548.167,E,1,12,1.0,0.0,M,0.0,M,,*66
$GPGSA,A,3,01,02,03,04,05,06,07,08,09,10,11,12,1.0,1.0,1.0*30
$GPRMC,063434.263,A,5312.162,N,00548.167,E,058.3,248.5,210318,000.0,W*7E
$GPGGA,063435.263,5312.154,N,00548.144,E,1,12,1.0,0.0,M,0.0,M,,*63
$GPGSA,A,3,01,02,03,04,05,06,07,08,09,10,11,12,1.0,1.0,1.0*30
$GPRMC,063435.263,A,5312.154,N,00548.144,E,058.3,248.5,210318,000.0,W*7B
$GPGGA,063436.263,5312.145,N,00548.122,E,1,12,1.0,0.0,M,0.0,M,,*60
$GPGSA,A,3,01,02,03,04,05,06,07,08,09,10,11,12,1.0,1.0,1.0*30
$GPRMC,063436.263,A,5312.145,N,00548.122,E,058.3,248.5,210318,000.0,W*78
$GPGGA,063437.263,5312.136,N,00548.099,E,1,12,1.0,0.0,M,0.0,M,,*64
$GPGSA,A,3,01,02,03,04,05,06,07,08,09,10,11,12,1.0,1.0,1.0*30
$GPRMC,063437.263,A,5312.136,N,00548.099,E,058.3,320.1,210318,000.0,W*77
$GPGGA,063438.263,5312.150,N,00548.087,E,1,12,1.0,0.0,M,0.0,M,,*64
$GPGSA,A,3,01,02,03,04,05,06,07,08,09,10,11,12,1.0,1.0,1.0*30
$GPRMC,063438.263,A,5312.150,N,00548.087,E,058.3,320.1,210318,000.0,W*77
$GPGGA,063439.263,5312.165,N,00548.075,E,1,12,1.0,0.0,M,0.0,M,,*6E
$GPGSA,A,3,01,02,03,04,05,06,07,08,09,10,11,12,1.0,1.0,1.0*30
$GPRMC,063439.263,A,5312.165,N,00548.075,E,058.3,320.1,210318,000.0,W*7D
$GPGGA,063440.263,5312.179,N,00548.063,E,1,12,1.0,0.0,M,0.0,M,,*6A
$GPGSA,A,3,01,02,03,04,05,06,07,08,09,10,11,12,1.0,1.0,1.0*30
$GPRMC,063440.263,A,5312.179,N,00548.063,E,058.3,320.1,210318,000.0,W*79
$GPGGA,063441.263,5312.194,N,00548.050,E,1,12,1.0,0.0,M,0.0,M,,*68
$GPGSA,A,3,01,02,03,04,05,06,07,08,09,10,11,12,1.0,1.0,1.0*30
$GPRMC,063441.263,A,5312.194,N,00548.050,E,058.3,320.1,210318,000.0,W*7B
$GPGGA,063442.263,5312.208,N,00548.038,E,1,12,1.0,0.0,M,0.0,M,,*63
$GPGSA,A,3,01,02,03,04,05,06,07,08,09,10,11,12,1.0,1.0,1.0*30
$GPRMC,063442.263,A,5312.208,N,00548.038,E,058.3,140.5,210318,000.0,W*70
$GPGGA,063443.263,5312.194,N,00548.050,E,1,12,1.0,0.0,M,0.0,M,,*6A
$GPGSA,A,3,01,02,03,04,05,06,07,08,09,10,11,12,1.0,1.0,1.0*30
$GPRMC,063443.263,A,5312.194,N,00548.050,E,058.3,140.5,210318,000.0,W*79
$GPGGA,063444.263,5312.179,N,00548.062,E,1,12,1.0,0.0,M,0.0,M,,*6F
$GPGSA,A,3,01,02,03,04,05,06,07,08,09,10,11,12,1.0,1.0,1.0*30
$GPRMC,063444.263,A,5312.179,N,00548.062,E,058.3,140.5,210318,000.0,W*7C
$GPGGA,063445.263,5312.165,N,00548.074,E,1,12,1.0,0.0,M,0.0,M,,*64
$GPGSA,A,3,01,02,03,04,05,06,07,08,09,10,11,12,1.0,1.0,1.0*30
$GPRMC,063445.263,A,5312.165,N,00548.074,E,058.3,140.5,210318,000.0,W*77
$GPGGA,063446.263,5312.150,N,00548.086,E,1,12,1.0,0.0,M,0.0,M,,*6C
$GPGSA,A,3,01,02,03,04,05,06,07,08,09,10,11,12,1.0,1.0,1.0*30
$GPRMC,063446.263,A,5312.150,N,00548.086,E,058.3,140.5,210318,000.0,W*7F
$GPGGA,063447.263,5312.136,N,00548.098,E,1,12,1.0,0.0,M,0.0,M,,*62
$GPGSA,A,3,01,02,03,04,05,06,07,08,09,10,11,12,1.0,1.0,1.0*30
$GPRMC,063447.263,A,5312.136,N,00548.098,E,058.3,069.3,210318,000.0,W*7D
$GPGGA,063448.263,5312.144,N,00548.121,E,1,12,1.0,0.0,M,0.0,M,,*6B
$GPGSA,A,3,01,02,03,04,05,06,07,08,09,10,11,12,1.0,1.0,1.0*30
$GPRMC,063448.263,A,5312.144,N,00548.121,E,058.3,069.3,210318,000.0,W*74
$GPGGA,063449.263,5312.153,N,00548.144,E,1,12,1.0,0.0,M,0.0,M,,*6F
$GPGSA,A,3,01,02,03,04,05,06,07,08,09,10,11,12,1.0,1.0,1.0*30
$GPRMC,063449.263,A,5312.153,N,00548.144,E,058.3,069.3,210318,000.0,W*70
$GPGGA,063450.263,5312.161,N,00548.167,E,1,12,1.0,0.0,M,0.0,M,,*67
$GPGSA,A,3,01,02,03,04,05,06,07,08,09,10,11,12,1.0,1.0,1.0*30
$GPRMC,063450.263,A,5312.161,N,00548.167,E,058.3,069.3,210318,000.0,W*78
$GPGGA,063451.263,5312.170,N,00548.190,E,1,12,1.0,0.0,M,0.0,M,,*6E
$GPGSA,A,3,01,02,03,04,05,06,07,08,09,10,11,12,1.0,1.0,1.0*30
$GPRMC,063451.263,A,5312.170,N,00548.190,E,058.3,291.2,210318,000.0,W*75
$GPGGA,063452.263,5312.179,N,00548.167,E,1,12,1.0,0.0,M,0.0,M,,*6C
$GPGSA,A,3,01,02,03,04,05,06,07,08,09,10,11,12,1.0,1.0,1.0*30
$GPRMC,063452.263,A,5312.179,N,00548.167,E,058.3,291.2,210318,000.0,W*77
$GPGGA,063453.263,5312.187,N,00548.144,E,1,12,1.0,0.0,M,0.0,M,,*6D
$GPGSA,A,3,01,02,03,04,05,06,07,08,09,10,11,12,1.0,1.0,1.0*30
$GPRMC,063453.263,A,5312.187,N,00548.144,E,058.3,291.2,210318,000.0,W*76
$GPGGA,063454.263,5312.196,N,00548.122,E,1,12,1.0,0.0,M,0.0,M,,*6A
$GPGSA,A,3,01,02,03,04,05,06,07,08,09,10,11,12,1.0,1.0,1.0*30
$GPRMC,063454.263,A,5312.196,N,00548.122,E,058.3,291.2,210318,000.0,W*71
$GPGGA,063455.263,5312.205,N,00548.099,E,1,12,1.0,0.0,M,0.0,M,,*63
$GPGSA,A,3,01,02,03,04,05,06,07,08,09,10,11,12,1.0,1.0,1.0*30
$GPRMC,063455.263,A,5312.205,N,00548.099,E,058.3,291.2,210318,000.0,W*78
$GPGGA,063456.263,5312.214,N,00548.076,E,1,12,1.0,0.0,M,0.0,M,,*61
$GPGSA,A,3,01,02,03,04,05,06,07,08,09,10,11,12,1.0,1.0,1.0*30
$GPRMC,063456.263,A,5312.214,N,00548.076,E,058.3,291.2,210318,000.0,W*7A
$GPGGA,063457.263,5312.223,N,00548.053,E,1,12,1.0,0.0,M,0.0,M,,*63
$GPGSA,A,3,01,02,03,04,05,06,07,08,09,10,11,12,1.0,1.0,1.0*30
$GPRMC,063457.263,A,5312.223,N,00548.053,E,058.3,111.0,210318,000.0,W*71
$GPGGA,063458.263,5312.214,N,00548.076,E,1,12,1.0,0.0,M,0.0,M,,*6F
$GPGSA,A,3,01,02,03,04,05,06,07,08,09,10,11,12,1.0,1.0,1.0*30
$GPRMC,063458.263,A,5312.214,N,00548.076,E,058.3,111.0,210318,000.0,W*7D
$GPGGA,063459.263,5312.205,N,00548.099,E,1,12,1.0,0.0,M,0.0,M,,*6F
$GPGSA,A,3,01,02,03,04,05,06,07,08,09,10,11,12,1.0,1.0,1.0*30
$GPRMC,063459.263,A,5312.205,N,00548.099,E,058.3,111.0,210318,000.0,W*7D
$GPGGA,063500.263,5312.196,N,00548.122,E,1,12,1.0,0.0,M,0.0,M,,*6A
$GPGSA,A,3,01,02,03,04,05,06,07,08,09,10,11,12,1.0,1.0,1.0*30
$GPRMC,063500.263,A,5312.196,N,00548.122,E,058.3,111.0,210318,000.0,W*78
$GPGGA,063501.263,5312.188,N,00548.145,E,1,12,1.0,0.0,M,0.0,M,,*65
$GPGSA,A,3,01,02,03,04,05,06,07,08,09,10,11,12,1.0,1.0,1.0*30
$GPRMC,063501.263,A,5312.188,N,00548.145,E,058.3,111.0,210318,000.0,W*77
$GPGGA,063502.263,5312.179,N,00548.167,E,1,12,1.0,0.0,M,0.0,M,,*68
$GPGSA,A,3,01,02,03,04,05,06,07,08,09,10,11,12,1.0,1.0,1.0*30
$GPRMC,063502.263,A,5312.179,N,00548.167,E,058.3,111.0,210318,000.0,W*7A
$GPGGA,063503.263,5312.170,N,00548.190,E,1,12,1.0,0.0,M,0.0,M,,*68
$GPGSA,A,3,01,02,03,04,05,06,07,08,09,10,11,12,1.0,1.0,1.0*30
$GPRMC,063503.263,A,5312.170,N,00548.190,E,058.3,249.2,210318,000.0,W*76
$GPGGA,063504.263,5312.162,N,00548.167,E,1,12,1.0,0.0,M,0.0,M,,*64
$GPGSA,A,3,01,02,03,04,05,06,07,08,09,10,11,12,1.0,1.0,1.0*30
$GPRMC,063504.263,A,5312.162,N,00548.167,E,058.3,249.2,210318,000.0,W*7A
$GPGGA,063505.263,5312.153,N,00548.144,E,1,12,1.0,0.0,M,0.0,M,,*66
$GPGSA,A,3,01,02,03,04,05,06,07,08,09,10,11,12,1.0,1.0,1.0*30
$GPRMC,063505.263,A,5312.153,N,00548.144,E,058.3,249.2,210318,000.0,W*78
$GPGGA,063506.263,5312.144,N,00548.122,E,1,12,1.0,0.0,M,0.0,M,,*63
$GPGSA,A,3,01,02,03,04,05,06,07,08,09,10,11,12,1.0,1.0,1.0*30
$GPRMC,063506.263,A,5312.144,N,00548.122,E,058.3,249.2,210318,000.0,W*7D
$GPGGA,063507.263,5312.136,N,00548.099,E,1,12,1.0,0.0,M,0.0,M,,*66
$GPGSA,A,3,01,02,03,04,05,06,07,08,09,10,11,12,1.0,1.0,1.0*30
$GPRMC,063507.263,A,5312.136,N,00548.099,E,058.3,320.4,210318,000.0,W*70
$GPGGA,063508.263,5312.150,N,00548.087,E,1,12,1.0,0.0,M,0.0,M,,*66
$GPGSA,A,3,01,02,03,04,05,06,07,08,09,10,11,12,1.0,1.0,1.0*30
$GPRMC,063508.263,A,5312.150,N,00548.087,E,058.3,320.4,210318,000.0,W*70
$GPGGA,063509.263,5312.165,N,00548.075,E,1,12,1.0,0.0,M,0.0,M,,*6C
$GPGSA,A,3,01,02,03,04,05,06,07,08,09,10,11,12,1.0,1.0,1.0*30
$GPRMC,063509.263,A,5312.165,N,00548.075,E,058.3,320.4,210318,000.0,W*7A
$GPGGA,063510.263,5312.179,N,00548.063,E,1,12,1.0,0.0,M,0.0,M,,*6E
$GPGSA,A,3,01,02,03,04,05,06,07,08,09,10,11,12,1.0,1.0,1.0*30
$GPRMC,063510.263,A,5312.179,N,00548.063,E,058.3,320.4,210318,000.0,W*78
$GPGGA,063511.263,5312.194,N,00548.051,E,1,12,1.0,0.0,M,0.0,M,,*6D
$GPGSA,A,3,01,02,03,04,05,06,07,08,09,10,11,12,1.0,1.0,1.0*30
$GPRMC,063511.263,A,5312.194,N,00548.051,E,058.3,320.4,210318,000.0,W*7B
$GPGGA,063512.263,5312.208,N,00548.039,E,1,12,1.0,0.0,M,0.0,M,,*66
$GPGSA,A,3,01,02,03,04,05,06,07,08,09,10,11,12,1.0,1.0,1.0*30
$GPRMC,063512.263,A,5312.208,N,00548.039,E,058.3,140.5,210318,000.0,W*75
$GPGGA,063513.263,5312.194,N,00548.051,E,1,12,1.0,0.0,M,0.0,M,,*6F
$GPGSA,A,3,01,02,03,04,05,06,07,08,09,10,11,12,1.0,1.0,1.0*30
$GPRMC,063513.263,A,5312.194,N,00548.051,E,058.3,140.5,210318,000.0,W*7C
$GPGGA,063514.263,5312.179,N,00548.063,E,1,12,1.0,0.0,M,0.0,M,,*6A
$GPGSA,A,3,01,02,03,04,05,06,07,08,09,10,11,12,1.0,1.0,1.0*30
$GPRMC,063514.263,A,5312.179,N,00548.063,E,058.3,140.5,210318,000.0,W*79
$GPGGA,063515.263,5312.165,N,00548.075,E,1,12,1.0,0.0,M,0.0,M,,*61
$GPGSA,A,3,01,02,03,04,05,06,07,08,09,10,11,12,1.0,1.0,1.0*30
$GPRMC,063515.263,A,5312.165,N,00548.075,E,058.3,140.5,210318,000.0,W*72
$GPGGA,063516.263,5312.150,N,00548.087,E,1,12,1.0,0.0,M,0.0,M,,*69
$GPGSA,A,3,01,02,03,04,05,06,07,08,09,10,11,12,1.0,1.0,1.0*30
$GPRMC,063516.263,A,5312.150,N,00548.087,E,058.3,140.5,210318,000.0,W*7A
$GPGGA,063517.263,5312.136,N,00548.099,E,1,12,1.0,0.0,M,0.0,M,,*67
$GPGSA,A,3,01,02,03,04,05,06,07,08,09,10,11,12,1.0,1.0,1.0*30
$GPRMC,063517.263,A,5312.136,N,00548.099,E,058.3,069.0,210318,000.0,W*7B
$GPGGA,063518.263,5312.144,N,00548.121,E,1,12,1.0,0.0,M,0.0,M,,*6F
$GPGSA,A,3,01,02,03,04,05,06,07,08,09,10,11,12,1.0,1.0,1.0*30
$GPRMC,063518.263,A,5312.144,N,00548.121,E,058.3,069.0,210318,000.0,W*73
$GPGGA,063519.263,5312.153,N,00548.144,E,1,12,1.0,0.0,M,0.0,M,,*6B
$GPGSA,A,3,01,02,03,04,05,06,07,08,09,10,11,12,1.0,1.0,1.0*30
$GPRMC,063519.263,A,5312.153,N,00548.144,E,058.3,069.0,210318,000.0,W*77
$GPGGA,063520.263,5312.162,N,00548.167,E,1,12,1.0,0.0,M,0.0,M,,*62
$GPGSA,A,3,01,02,03,04,05,06,07,08,09,10,11,12,1.0,1.0,1.0*30
$GPRMC,063520.263,A,5312.162,N,00548.167,E,058.3,069.0,210318,000.0,W*7E
$GPGGA,063521.263,5312.170,N,00548.190,E,1,12,1.0,0.0,M,0.0,M,,*68
$GPGSA,A,3,01,02,03,04,05,06,07,08,09,10,11,12,1.0,1.0,1.0*30
$GPRMC,063521.263,A,5312.170,N,00548.190,E,058.3,291.1,210318,000.0,W*70
$GPGGA,063522.263,5312.179,N,00548.167,E,1,12,1.0,0.0,M,0.0,M,,*6A
$GPGSA,A,3,01,02,03,04,05,06,07,08,09,10,11,12,1.0,1.0,1.0*30
$GPRMC,063522.263,A,5312.179,N,00548.167,E,058.3,291.1,210318,000.0,W*72
$GPGGA,063523.263,5312.188,N,00548.144,E,1,12,1.0,0.0,M,0.0,M,,*64
$GPGSA,A,3,01,02,03,04,05,06,07,08,09,10,11,12,1.0,1.0,1.0*30
$GPRMC,063523.263,A,5312.188,N,00548.144,E,058.3,291.1,210318,000.0,W*7C
$GPGGA,063524.263,5312.197,N,00548.121,E,1,12,1.0,0.0,M,0.0,M,,*6E
$GPGSA,A,3,01,02,03,04,05,06,07,08,09,10,11,12,1.0,1.0,1.0*30
$GPRMC,063524.263,A,5312.197,N,00548.121,E,058.3,291.1,210318,000.0,W*76
$GPGGA,063525.263,5312.205,N,00548.099,E,1,12,1.0,0.0,M,0.0,M,,*65
$GPGSA,A,3,01,02,03,04,05,06,07,08,09,10,11,12,1.0,1.0,1.0*30
$GPRMC,063525.263,A,5312.205,N,00548.099,E,058.3,291.1,210318,000.0,W*7D
$GPGGA,063526.263,5312.214,N,00548.076,E,1,12,1.0,0.0,M,0.0,M,,*67
$GPGSA,A,3,01,02,03,04,05,06,07,08,09,10,11,12,1.0,1.0,1.0*30
$GPRMC,063526.263,A,5312.214,N,00548.076,E,058.3,291.1,210318,000.0,W*7F
$GPGGA,063527.263,5312.223,N,00548.053,E,1,12,1.0,0.0,M,0.0,M,,*65
$GPGSA,A,3,01,02,03,04,05,06,07,08,09,10,11,12,1.0,1.0,1.0*30
$GPRMC,063527.263,A,5312.223,N,00548.053,E,058.3,291.1,210318,000.0,W*7D
