$GPGGA,063357.263,5312.222,N,00548.054,E,1,12,1.0,0.0,M,0.0,M,,*62
$GPGSA,A,3,01,02,03,04,05,06,07,08,09,10,11,12,1.0,1.0,1.0*30
$GPRMC,063357.263,A,5312.222,N,00548.054,E,053.5,124.8,210318,000.0,W*73
$GPGGA,063358.263,5312.211,N,00548.070,E,1,12,1.0,0.0,M,0.0,M,,*6B
$GPGSA,A,3,01,02,03,04,05,06,07,08,09,10,11,12,1.0,1.0,1.0*30
$GPRMC,063358.263,A,5312.211,N,00548.070,E,057.4,109.3,210318,000.0,W*7B
$GPGGA,063359.263,5312.203,N,00548.093,E,1,12,1.0,0.0,M,0.0,M,,*64
$GPGSA,A,3,01,02,03,04,05,06,07,08,09,10,11,12,1.0,1.0,1.0*30
$GPRMC,063359.263,A,5312.203,N,00548.093,E,059.3,108.5,210318,000.0,W*7A
$GPGGA,063400.263,5312.195,N,00548.117,E,1,12,1.0,0.0,M,0.0,M,,*6E
$GPGSA,A,3,01,02,03,04,05,06,07,08,09,10,11,12,1.0,1.0,1.0*30
$GPRMC,063400.263,A,5312.195,N,00548.117,E,057.4,109.3,210318,000.0,W*7E
$GPGGA,063401.263,5312.187,N,00548.140,E,1,12,1.0,0.0,M,0.0,M,,*6E
$GPGSA,A,3,01,02,03,04,05,06,07,08,09,10,11,12,1.0,1.0,1.0*30
$GPRMC,063401.263,A,5312.187,N,00548.140,E,059.3,108.5,210318,000.0,W*70
$GPGGA,063402.263,5312.179,N,00548.164,E,1,12,1.0,0.0,M,0.0,M,,*6A
$GPGSA,A,3,01,02,03,04,05,06,07,08,09,10,11,12,1.0,1.0,1.0*30
$GPRMC,063402.263,A,5312.179,N,00548.164,E,057.4,109.3,210318,000.0,W*7A
$GPGGA,063403.263,5312.171,N,00548.187,E,1,12,1.0,0.0,M,0.0,M,,*6E
$GPGSA,A,3,01,02,03,04,05,06,07,08,09,10,11,12,1.0,1.0,1.0*30
$GPRMC,063403.263,A,5312.171,N,00548.187,E,057.5,247.7,210318,000.0,W*72
$GPGGA,063404.263,5312.162,N,00548.165,E,1,12,1.0,0.0,M,0.0,M,,*67
$GPGSA,A,3,01,02,03,04,05,06,07,08,09,10,11,12,1.0,1.0,1.0*30
$GPRMC,063404.263,A,5312.162,N,00548.165,E,059.3,248.5,210318,000.0,W*7E
$GPGGA,063405.263,5312.153,N,00548.142,E,1,12,1.0,0.0,M,0.0,M,,*61
$GPGSA,A,3,01,02,03,04,05,06,07,08,09,10,11,12,1.0,1.0,1.0*30
$GPRMC,063405.263,A,5312.153,N,00548.142,E,057.5,247.7,210318,000.0,W*7D
$GPGGA,063406.263,5312.144,N,00548.120,E,1,12,1.0,0.0,M,0.0,M,,*60
$GPGSA,A,3,01,02,03,04,05,06,07,08,09,10,11,12,1.0,1.0,1.0*30
$GPRMC,063406.263,A,5312.144,N,00548.120,E,057.5,247.7,210318,000.0,W*7C
$GPGGA,063407.263,5312.135,N,00548.098,E,1,12,1.0,0.0,M,0.0,M,,*65
$GPGSA,A,3,01,02,03,04,05,06,07,08,09,10,11,12,1.0,1.0,1.0*30
$GPRMC,063407.263,A,5312.135,N,00548.098,E,056.7,319.5,210318,000.0,W*72
$GPGGA,063408.263,5312.149,N,00548.086,E,1,12,1.0,0.0,M,0.0,M,,*6E
$GPGSA,A,3,01,02,03,04,05,06,07,08,09,10,11,12,1.0,1.0,1.0*30
$GPRMC,063408.263,A,5312.149,N,00548.086,E,059.0,323.9,210318,000.0,W*74
$GPGGA,063409.263,5312.164,N,00548.075,E,1,12,1.0,0.0,M,0.0,M,,*6C
$GPGSA,A,3,01,02,03,04,05,06,07,08,09,10,11,12,1.0,1.0,1.0*30
$GPRMC,063409.263,A,5312.164,N,00548.075,E,059.9,321.5,210318,000.0,W*71
$GPGGA,063410.263,5312.179,N,00548.063,E,1,12,1.0,0.0,M,0.0,M,,*6F
$GPGSA,A,3,01,02,03,04,05,06,07,08,09,10,11,12,1.0,1.0,1.0*30
$GPRMC,063410.263,A,5312.179,N,00548.063,E,055.7,322.0,210318,000.0,W*76
$GPGGA,063411.263,5312.193,N,00548.052,E,1,12,1.0,0.0,M,0.0,M,,*68
$GPGSA,A,3,01,02,03,04,05,06,07,08,09,10,11,12,1.0,1.0,1.0*30
$GPRMC,063411.263,A,5312.193,N,00548.052,E,059.0,323.9,210318,000.0,W*72
$GPGGA,063412.263,5312.208,N,00548.041,E,1,12,1.0,0.0,M,0.0,M,,*68
$GPGSA,A,3,01,02,03,04,05,06,07,08,09,10,11,12,1.0,1.0,1.0*30
$GPRMC,063412.263,A,5312.208,N,00548.041,E,058.3,042.1,210318,000.0,W*7C
$GPGGA,063413.263,5312.222,N,00548.054,E,1,12,1.0,0.0,M,0.0,M,,*65
$GPGSA,A,3,01,02,03,04,05,06,07,08,09,10,11,12,1.0,1.0,1.0*30
$GPRMC,063413.263,A,5312.222,N,00548.054,E,058.3,112.1,210318,000.0,W*75
$GPGGA,063414.263,5312.213,N,00548.076,E,1,12,1.0,0.0,M,0.0,M,,*60
$GPGSA,A,3,01,02,03,04,05,06,07,08,09,10,11,12,1.0,1.0,1.0*30
$GPRMC,063414.263,A,5312.213,N,00548.076,E,058.3,112.1,210318,000.0,W*70
$GPGGA,063415.263,5312.204,N,00548.099,E,1,12,1.0,0.0,M,0.0,M,,*66
$GPGSA,A,3,01,02,03,04,05,06,07,08,09,10,11,12,1.0,1.0,1.0*30
$GPRMC,063415.263,A,5312.204,N,00548.099,E,058.3,112.1,210318,000.0,W*76
$GPGGA,063416.263,5312.195,N,00548.121,E,1,12,1.0,0.0,M,0.0,M,,*6C
$GPGSA,A,3,01,02,03,04,05,06,07,08,09,10,11,12,1.0,1.0,1.0*30
$GPRMC,063416.263,A,5312.195,N,00548.121,E,058.3,112.1,210318,000.0,W*7C
$GPGGA,063417.263,5312.186,N,00548.143,E,1,12,1.0,0.0,M,0.0,M,,*6B
$GPGSA,A,3,01,02,03,04,05,06,07,08,09,10,11,12,1.0,1.0,1.0*30
$GPRMC,063417.263,A,5312.186,N,00548.143,E,058.3,112.1,210318,000.0,W*7B
$GPGGA,063418.263,5312.177,N,00548.166,E,1,12,1.0,0.0,M,0.0,M,,*6D
$GPGSA,A,3,01,02,03,04,05,06,07,08,09,10,11,12,1.0,1.0,1.0*30
$GPRMC,063418.263,A,5312.177,N,00548.166,E,058.3,105.4,210318,000.0,W*7E
$GPGGA,063419.263,5312.170,N,00548.190,E,1,12,1.0,0.0,M,0.0,M,,*62
$GPGSA,A,3,01,02,03,04,05,06,07,08,09,10,11,12,1.0,1.0,1.0*30
$GPRMC,063419.263,A,5312.170,N,00548.190,E,058.3,249.3,210318,000.0,W*7D
$GPGGA,063420.263,5312.162,N,00548.168,E,1,12,1.0,0.0,M,0.0,M,,*6C
$GPGSA,A,3,01,02,03,04,05,06,07,08,09,10,11,12,1.0,1.0,1.0*30
$GPRMC,063420.263,A,5312.162,N,00548.168,E,058.3,249.3,210318,000.0,W*73
$GPGGA,063421.263,5312.153,N,00548.145,E,1,12,1.0,0.0,M,0.0,M,,*60
$GPGSA,A,3,01,02,03,04,05,06,07,08,09,10,11,12,1.0,1.0,1.0*30
$GPRMC,063421.263,A,5312.153,N,00548.145,E,058.3,249.3,210318,000.0,W*7F
$GPGGA,063422.263,5312.144,N,00548.122,E,1,12,1.0,0.0,M,0.0,M,,*64
$GPGSA,A,3,01,02,03,04,05,06,07,08,09,10,11,12,1.0,1.0,1.0*30
$GPRMC,063422.263,A,5312.144,N,00548.122,E,058.3,249.3,210318,000.0,W*7B
$GPGGA,063423.263,5312.136,N,00548.099,E,1,12,1.0,0.0,M,0.0,M,,*61
$GPGSA,A,3,01,02,03,04,05,06,07,08,09,10,11,12,1.0,1.0,1.0*30
$GPRMC,063423.263,A,5312.136,N,00548.099,E,058.3,321.7,210318,000.0,W*75
$GPGGA,063424.263,5312.150,N,00548.087,E,1,12,1.0,0.0,M,0.0,M,,*69
$GPGSA,A,3,01,02,03,04,05,06,07,08,09,10,11,12,1.0,1.0,1.0*30
$GPRMC,063424.263,A,5312.150,N,00548.087,E,058.3,321.7,210318,000.0,W*7D
$GPGGA,063425.263,5312.165,N,00548.076,E,1,12,1.0,0.0,M,0.0,M,,*60
$GPGSA,A,3,01,02,03,04,05,06,07,08,09,10,11,12,1.0,1.0,1.0*30
$GPRMC,063425.263,A,5312.165,N,00548.076,E,058.3,321.7,210318,000.0,W*74
$GPGGA,063426.263,5312.180,N,00548.064,E,1,12,1.0,0.0,M,0.0,M,,*6B
$GPGSA,A,3,01,02,03,04,05,06,07,08,09,10,11,12,1.0,1.0,1.0*30
$GPRMC,063426.263,A,5312.180,N,00548.064,E,058.3,321.7,210318,000.0,W*7F
$GPGGA,063427.263,5312.194,N,00548.053,E,1,12,1.0,0.0,M,0.0,M,,*6B
$GPGSA,A,3,01,02,03,04,05,06,07,08,09,10,11,12,1.0,1.0,1.0*30
$GPRMC,063427.263,A,5312.194,N,00548.053,E,058.3,321.7,210318,000.0,W*7F
$GPGGA,063428.263,5312.209,N,00548.041,E,1,12,1.0,0.0,M,0.0,M,,*60
$GPGSA,A,3,01,02,03,04,05,06,07,08,09,10,11,12,1.0,1.0,1.0*30
$GPRMC,063428.263,A,5312.209,N,00548.041,E,058.3,043.7,210318,000.0,W*73
$GPGGA,063429.263,5312.223,N,00548.054,E,1,12,1.0,0.0,M,0.0,M,,*6D
$GPGSA,A,3,01,02,03,04,05,06,07,08,09,10,11,12,1.0,1.0,1.0*30
$GPRMC,063429.263,A,5312.223,N,00548.054,E,058.3,111.7,210318,000.0,W*78
$GPGGA,063430.263,5312.214,N,00548.077,E,1,12,1.0,0.0,M,0.0,M,,*60
$GPGSA,A,3,01,02,03,04,05,06,07,08,09,10,11,12,1.0,1.0,1.0*30
$GPRMC,063430.263,A,5312.214,N,00548.077,E,058.3,111.7,210318,000.0,W*75
$GPGGA,063431.263,5312.205,N,00548.099,E,1,12,1.0,0.0,M,0.0,M,,*61
$GPGSA,A,3,01,02,03,04,05,06,07,08,09,10,11,12,1.0,1.0,1.0*30
$GPRMC,063431.263,A,5312.205,N,00548.099,E,058.3,111.7,210318,000.0,W*74
$GPGGA,063432.263,5312.196,N,00548.122,E,1,12,1.0,0.0,M,0.0,M,,*6A
$GPGSA,A,3,01,02,03,04,05,06,07,08,09,10,11,12,1.0,1.0,1.0*30
$GPRMC,063432.263,A,5312.196,N,00548.122,E,058.3,111.7,210318,000.0,W*7F
$GPGGA,063433.263,5312.187,N,00548.145,E,1,12,1.0,0.0,M,0.0,M,,*6A
$GPGSA,A,3,01,02,03,04,05,06,07,08,09,10,11,12,1.0,1.0,1.0*30
$GPRMC,063433.263,A,5312.187,N,00548.145,E,058.3,111.7,210318,000.0,W*7F
$GPGGA,063434.263,5312.178,N,00548.167,E,1,12,1.0,0.0,M,0.0,M,,*6D
$GPGSA,A,3,01,02,03,04,05,06,07,08,09,10,11,12,1.0,1.0,1.0*30
$GPRMC,063434.263,A,5312.178,N,00548.167,E,058.3,111.7,210318,000.0,W*78
$GPGGA,063435.263,5312.169,N,00548.190,E,1,12,1.0,0.0,M,0.0,M,,*64
$GPGSA,A,3,01,02,03,04,05,06,07,08,09,10,11,12,1.0,1.0,1.0*30
$GPRMC,063435.263,A,5312.169,N,00548.190,E,058.3,249.5,210318,000.0,W*7D
$GPGGA,063436.263,5312.161,N,00548.167,E,1,12,1.0,0.0,M,0.0,M,,*67
$GPGSA,A,3,01,02,03,04,05,06,07,08,09,10,11,12,1.0,1.0,1.0*30
$GPRMC,063436.263,A,5312.161,N,00548.167,E,058.3,249.5,210318,000.0,W*7E
$GPGGA,063437.263,5312.152,N,00548.144,E,1,12,1.0,0.0,M,0.0,M,,*67
$GPGSA,A,3,01,02,03,04,05,06,07,08,09,10,11,12,1.0,1.0,1.0*30
$GPRMC,063437.263,A,5312.152,N,00548.144,E,058.3,249.5,210318,000.0,W*7E
$GPGGA,063438.263,5312.144,N,00548.121,E,1,12,1.0,0.0,M,0.0,M,,*6C
$GPGSA,A,3,01,02,03,04,05,06,07,08,09,10,11,12,1.0,1.0,1.0*30
$GPRMC,063438.263,A,5312.144,N,00548.121,E,058.3,249.5,210318,000.0,W*75
$GPGGA,063439.263,5312.135,N,00548.098,E,1,12,1.0,0.0,M,0.0,M,,*68
$GPGSA,A,3,01,02,03,04,05,06,07,08,09,10,11,12,1.0,1.0,1.0*30
$GPRMC,063439.263,A,5312.135,N,00548.098,E,058.3,321.3,210318,000.0,W*78
$GPGGA,063440.263,5312.150,N,00548.086,E,1,12,1.0,0.0,M,0.0,M,,*6A
$GPGSA,A,3,01,02,03,04,05,06,07,08,09,10,11,12,1.0,1.0,1.0*30
$GPRMC,063440.263,A,5312.150,N,00548.086,E,058.3,321.3,210318,000.0,W*7A
$GPGGA,063441.263,5312.164,N,00548.074,E,1,12,1.0,0.0,M,0.0,M,,*61
$GPGSA,A,3,01,02,03,04,05,06,07,08,09,10,11,12,1.0,1.0,1.0*30
$GPRMC,063441.263,A,5312.164,N,00548.074,E,058.3,321.3,210318,000.0,W*71
$GPGGA,063442.263,5312.179,N,00548.063,E,1,12,1.0,0.0,M,0.0,M,,*68
$GPGSA,A,3,01,02,03,04,05,06,07,08,09,10,11,12,1.0,1.0,1.0*30
$GPRMC,063442.263,A,5312.179,N,00548.063,E,058.3,321.3,210318,000.0,W*78
$GPGGA,063443.263,5312.193,N,00548.051,E,1,12,1.0,0.0,M,0.0,M,,*6C
$GPGSA,A,3,01,02,03,04,05,06,07,08,09,10,11,12,1.0,1.0,1.0*30
$GPRMC,063443.263,A,5312.193,N,00548.051,E,058.3,321.3,210318,000.0,W*7C
$GPGGA,063444.263,5312.208,N,00548.039,E,1,12,1.0,0.0,M,0.0,M,,*64
$GPGSA,A,3,01,02,03,04,05,06,07,08,09,10,11,12,1.0,1.0,1.0*30
$GPRMC,063444.263,A,5312.208,N,00548.039,E,058.3,049.3,210318,000.0,W*79
$GPGGA,063445.263,5312.221,N,00548.055,E,1,12,1.0,0.0,M,0.0,M,,*64
$GPGSA,A,3,01,02,03,04,05,06,07,08,09,10,11,12,1.0,1.0,1.0*30
$GPRMC,063445.263,A,5312.221,N,00548.055,E,058.3,049.3,210318,000.0,W*79
