$GPGGA,121402.600,5312.168,N,00547.323,E,1,12,1.0,0.0,M,0.0,M,,*62
$GPGSA,A,3,01,02,03,04,05,06,07,08,09,10,11,12,1.0,1.0,1.0*30
$GPRMC,121402.600,A,5312.168,N,00547.323,E,015.6,330.8,110218,000.0,W*77
$GPGGA,121403.600,5312.172,N,00547.321,E,1,12,1.0,0.0,M,0.0,M,,*6A
$GPGSA,A,3,01,02,03,04,05,06,07,08,09,10,11,12,1.0,1.0,1.0*30
$GPRMC,121403.600,A,5312.172,N,00547.321,E,015.6,330.8,110218,000.0,W*7F
$GPGGA,121404.600,5312.177,N,00547.319,E,1,12,1.0,0.0,M,0.0,M,,*63
$GPGSA,A,3,01,02,03,04,05,06,07,08,09,10,11,12,1.0,1.0,1.0*30
$GPRMC,121404.600,A,5312.177,N,00547.319,E,015.6,330.8,110218,000.0,W*76
$GPGGA,121405.600,5312.181,N,00547.316,E,1,12,1.0,0.0,M,0.0,M,,*64
$GPGSA,A,3,01,02,03,04,05,06,07,08,09,10,11,12,1.0,1.0,1.0*30
$GPRMC,121405.600,A,5312.181,N,00547.316,E,015.6,330.8,110218,000.0,W*71
$GPGGA,121406.600,5312.185,N,00547.314,E,1,12,1.0,0.0,M,0.0,M,,*61
$GPGSA,A,3,01,02,03,04,05,06,07,08,09,10,11,12,1.0,1.0,1.0*30
$GPRMC,121406.600,A,5312.185,N,00547.314,E,015.6,330.8,110218,000.0,W*74
$GPGGA,121407.600,5312.189,N,00547.312,E,1,12,1.0,0.0,M,0.0,M,,*6A
$GPGSA,A,3,01,02,03,04,05,06,07,08,09,10,11,12,1.0,1.0,1.0*30
$GPRMC,121407.600,A,5312.189,N,00547.312,E,015.6,330.8,110218,000.0,W*7F
$GPGGA,121408.600,5312.193,N,00547.310,E,1,12,1.0,0.0,M,0.0,M,,*6C
$GPGSA,A,3,01,02,03,04,05,06,07,08,09,10,11,12,1.0,1.0,1.0*30
$GPRMC,121408.600,A,5312.193,N,00547.310,E,015.6,330.8,110218,000.0,W*79
$GPGGA,121409.600,5312.197,N,00547.307,E,1,12,1.0,0.0,M,0.0,M,,*6F
$GPGSA,A,3,01,02,03,04,05,06,07,08,09,10,11,12,1.0,1.0,1.0*30
$GPRMC,121409.600,A,5312.197,N,00547.307,E,015.6,330.8,110218,000.0,W*7A
$GPGGA,121410.600,5312.201,N,00547.305,E,1,12,1.0,0.0,M,0.0,M,,*69
$GPGSA,A,3,01,02,03,04,05,06,07,08,09,10,11,12,1.0,1.0,1.0*30
$GPRMC,121410.600,A,5312.201,N,00547.305,E,015.6,330.8,110218,000.0,W*7C
$GPGGA,121411.600,5312.205,N,00547.303,E,1,12,1.0,0.0,M,0.0,M,,*6A
$GPGSA,A,3,01,02,03,04,05,06,07,08,09,10,11,12,1.0,1.0,1.0*30
$GPRMC,121411.600,A,5312.205,N,00547.303,E,015.6,330.8,110218,000.0,W*7F
$GPGGA,121412.600,5312.209,N,00547.300,E,1,12,1.0,0.0,M,0.0,M,,*66
$GPGSA,A,3,01,02,03,04,05,06,07,08,09,10,11,12,1.0,1.0,1.0*30
$GPRMC,121412.600,A,5312.209,N,00547.300,E,015.6,330.8,110218,000.0,W*73
$GPGGA,121413.600,5312.213,N,00547.298,E,1,12,1.0,0.0,M,0.0,M,,*6C
$GPGSA,A,3,01,02,03,04,05,06,07,08,09,10,11,12,1.0,1.0,1.0*30
$GPRMC,121413.600,A,5312.213,N,00547.298,E,015.6,330.8,110218,000.0,W*79
$GPGGA,121414.600,5312.217,N,00547.296,E,1,12,1.0,0.0,M,0.0,M,,*61
$GPGSA,A,3,01,02,03,04,05,06,07,08,09,10,11,12,1.0,1.0,1.0*30
$GPRMC,121414.600,A,5312.217,N,00547.296,E,015.6,330.8,110218,000.0,W*74
$GPGGA,121415.600,5312.222,N,00547.293,E,1,12,1.0,0.0,M,0.0,M,,*63
$GPGSA,A,3,01,02,03,04,05,06,07,08,09,10,11,12,1.0,1.0,1.0*30
$GPRMC,121415.600,A,5312.222,N,00547.293,E,015.6,330.8,110218,000.0,W*76
$GPGGA,121416.600,5312.226,N,00547.291,E,1,12,1.0,0.0,M,0.0,M,,*66
$GPGSA,A,3,01,02,03,04,05,06,07,08,09,10,11,12,1.0,1.0,1.0*30
$GPRMC,121416.600,A,5312.226,N,00547.291,E,015.6,330.8,110218,000.0,W*73
$GPGGA,121417.600,5312.230,N,00547.289,E,1,12,1.0,0.0,M,0.0,M,,*69
$GPGSA,A,3,01,02,03,04,05,06,07,08,09,10,11,12,1.0,1.0,1.0*30
$GPRMC,121417.600,A,5312.230,N,00547.289,E,015.6,330.8,110218,000.0,W*7C
$GPGGA,121418.600,5312.234,N,00547.287,E,1,12,1.0,0.0,M,0.0,M,,*6C
$GPGSA,A,3,01,02,03,04,05,06,07,08,09,10,11,12,1.0,1.0,1.0*30
$GPRMC,121418.600,A,5312.234,N,00547.287,E,015.6,330.8,110218,000.0,W*79
$GPGGA,121419.600,5312.238,N,00547.284,E,1,12,1.0,0.0,M,0.0,M,,*62
$GPGSA,A,3,01,02,03,04,05,06,07,08,09,10,11,12,1.0,1.0,1.0*30
$GPRMC,121419.600,A,5312.238,N,00547.284,E,015.6,330.8,110218,000.0,W*77
$GPGGA,121420.600,5312.242,N,00547.282,E,1,12,1.0,0.0,M,0.0,M,,*63
$GPGSA,A,3,01,02,03,04,05,06,07,08,09,10,11,12,1.0,1.0,1.0*30
$GPRMC,121420.600,A,5312.242,N,00547.282,E,015.5,035.6,110218,000.0,W*7D
$GPGGA,121421.600,5312.246,N,00547.285,E,1,12,1.0,0.0,M,0.0,M,,*61
$GPGSA,A,3,01,02,03,04,05,06,07,08,09,10,11,12,1.0,1.0,1.0*30
$GPRMC,121421.600,A,5312.246,N,00547.285,E,015.6,035.6,110218,000.0,W*7C
$GPGGA,121422.600,5312.250,N,00547.288,E,1,12,1.0,0.0,M,0.0,M,,*68
$GPGSA,A,3,01,02,03,04,05,06,07,08,09,10,11,12,1.0,1.0,1.0*30
$GPRMC,121422.600,A,5312.250,N,00547.288,E,015.5,035.6,110218,000.0,W*76
$GPGGA,121423.600,5312.254,N,00547.290,E,1,12,1.0,0.0,M,0.0,M,,*64
$GPGSA,A,3,01,02,03,04,05,06,07,08,09,10,11,12,1.0,1.0,1.0*30
$GPRMC,121423.600,A,5312.254,N,00547.290,E,015.5,035.6,110218,000.0,W*7A
$GPGGA,121424.600,5312.258,N,00547.293,E,1,12,1.0,0.0,M,0.0,M,,*6C
$GPGSA,A,3,01,02,03,04,05,06,07,08,09,10,11,12,1.0,1.0,1.0*30
$GPRMC,121424.600,A,5312.258,N,00547.293,E,015.5,035.6,110218,000.0,W*72
$GPGGA,121425.600,5312.262,N,00547.296,E,1,12,1.0,0.0,M,0.0,M,,*61
$GPGSA,A,3,01,02,03,04,05,06,07,08,09,10,11,12,1.0,1.0,1.0*30
$GPRMC,121425.600,A,5312.262,N,00547.296,E,015.6,089.2,110218,000.0,W*7F
$GPGGA,121426.600,5312.262,N,00547.303,E,1,12,1.0,0.0,M,0.0,M,,*6F
$GPGSA,A,3,01,02,03,04,05,06,07,08,09,10,11,12,1.0,1.0,1.0*30
$GPRMC,121426.600,A,5312.262,N,00547.303,E,015.6,089.2,110218,000.0,W*71
$GPGGA,121427.600,5312.262,N,00547.311,E,1,12,1.0,0.0,M,0.0,M,,*6D
$GPGSA,A,3,01,02,03,04,05,06,07,08,09,10,11,12,1.0,1.0,1.0*30
$GPRMC,121427.600,A,5312.262,N,00547.311,E,015.6,089.2,110218,000.0,W*73
$GPGGA,121428.600,5312.262,N,00547.318,E,1,12,1.0,0.0,M,0.0,M,,*6B
$GPGSA,A,3,01,02,03,04,05,06,07,08,09,10,11,12,1.0,1.0,1.0*30
$GPRMC,121428.600,A,5312.262,N,00547.318,E,015.5,089.2,110218,000.0,W*76
$GPGGA,121429.600,5312.262,N,00547.325,E,1,12,1.0,0.0,M,0.0,M,,*64
$GPGSA,A,3,01,02,03,04,05,06,07,08,09,10,11,12,1.0,1.0,1.0*30
$GPRMC,121429.600,A,5312.262,N,00547.325,E,015.6,089.2,110218,000.0,W*7A
$GPGGA,121430.600,5312.262,N,00547.332,E,1,12,1.0,0.0,M,0.0,M,,*6A
$GPGSA,A,3,01,02,03,04,05,06,07,08,09,10,11,12,1.0,1.0,1.0*30
$GPRMC,121430.600,A,5312.262,N,00547.332,E,015.6,089.2,110218,000.0,W*74
$GPGGA,121431.600,5312.262,N,00547.339,E,1,12,1.0,0.0,M,0.0,M,,*60
$GPGSA,A,3,01,02,03,04,05,06,07,08,09,10,11,12,1.0,1.0,1.0*30
$GPRMC,121431.600,A,5312.262,N,00547.339,E,015.6,089.2,110218,000.0,W*7E
$GPGGA,121432.600,5312.263,N,00547.347,E,1,12,1.0,0.0,M,0.0,M,,*6B
$GPGSA,A,3,01,02,03,04,05,06,07,08,09,10,11,12,1.0,1.0,1.0*30
$GPRMC,121432.600,A,5312.263,N,00547.347,E,015.6,089.2,110218,000.0,W*75
$GPGGA,121433.600,5312.263,N,00547.354,E,1,12,1.0,0.0,M,0.0,M,,*68
$GPGSA,A,3,01,02,03,04,05,06,07,08,09,10,11,12,1.0,1.0,1.0*30
$GPRMC,121433.600,A,5312.263,N,00547.354,E,015.6,089.2,110218,000.0,W*76
$GPGGA,121434.600,5312.263,N,00547.361,E,1,12,1.0,0.0,M,0.0,M,,*69
$GPGSA,A,3,01,02,03,04,05,06,07,08,09,10,11,12,1.0,1.0,1.0*30
$GPRMC,121434.600,A,5312.263,N,00547.361,E,015.5,089.2,110218,000.0,W*74
$GPGGA,121435.600,5312.263,N,00547.368,E,1,12,1.0,0.0,M,0.0,M,,*61
$GPGSA,A,3,01,02,03,04,05,06,07,08,09,10,11,12,1.0,1.0,1.0*30
$GPRMC,121435.600,A,5312.263,N,00547.368,E,015.6,089.2,110218,000.0,W*7F
$GPGGA,121436.600,5312.263,N,00547.375,E,1,12,1.0,0.0,M,0.0,M,,*6E
$GPGSA,A,3,01,02,03,04,05,06,07,08,09,10,11,12,1.0,1.0,1.0*30
$GPRMC,121436.600,A,5312.263,N,00547.375,E,015.5,089.2,110218,000.0,W*73
$GPGGA,121437.600,5312.263,N,00547.383,E,1,12,1.0,0.0,M,0.0,M,,*66
$GPGSA,A,3,01,02,03,04,05,06,07,08,09,10,11,12,1.0,1.0,1.0*30
$GPRMC,121437.600,A,5312.263,N,00547.383,E,015.6,089.2,110218,000.0,W*78
$GPGGA,121438.600,5312.263,N,00547.390,E,1,12,1.0,0.0,M,0.0,M,,*6B
$GPGSA,A,3,01,02,03,04,05,06,07,08,09,10,11,12,1.0,1.0,1.0*30
$GPRMC,121438.600,A,5312.263,N,00547.390,E,015.6,089.2,110218,000.0,W*75
$GPGGA,121439.600,5312.263,N,00547.397,E,1,12,1.0,0.0,M,0.0,M,,*6D
$GPGSA,A,3,01,02,03,04,05,06,07,08,09,10,11,12,1.0,1.0,1.0*30
$GPRMC,121439.600,A,5312.263,N,00547.397,E,015.6,089.2,110218,000.0,W*73
$GPGGA,121440.600,5312.263,N,00547.404,E,1,12,1.0,0.0,M,0.0,M,,*6E
$GPGSA,A,3,01,02,03,04,05,06,07,08,09,10,11,12,1.0,1.0,1.0*30
$GPRMC,121440.600,A,5312.263,N,00547.404,E,015.6,089.2,110218,000.0,W*70
$GPGGA,121441.600,5312.263,N,00547.411,E,1,12,1.0,0.0,M,0.0,M,,*6B
$GPGSA,A,3,01,02,03,04,05,06,07,08,09,10,11,12,1.0,1.0,1.0*30
$GPRMC,121441.600,A,5312.263,N,00547.411,E,015.6,089.2,110218,000.0,W*75
$GPGGA,121442.600,5312.264,N,00547.419,E,1,12,1.0,0.0,M,0.0,M,,*67
$GPGSA,A,3,01,02,03,04,05,06,07,08,09,10,11,12,1.0,1.0,1.0*30
$GPRMC,121442.600,A,5312.264,N,00547.419,E,015.5,089.2,110218,000.0,W*7A
$GPGGA,121443.600,5312.264,N,00547.426,E,1,12,1.0,0.0,M,0.0,M,,*6A
$GPGSA,A,3,01,02,03,04,05,06,07,08,09,10,11,12,1.0,1.0,1.0*30
$GPRMC,121443.600,A,5312.264,N,00547.426,E,015.6,089.2,110218,000.0,W*74
$GPGGA,121444.600,5312.264,N,00547.433,E,1,12,1.0,0.0,M,0.0,M,,*69
$GPGSA,A,3,01,02,03,04,05,06,07,08,09,10,11,12,1.0,1.0,1.0*30
$GPRMC,121444.600,A,5312.264,N,00547.433,E,015.6,089.2,110218,000.0,W*77
$GPGGA,121445.600,5312.264,N,00547.440,E,1,12,1.0,0.0,M,0.0,M,,*6C
$GPGSA,A,3,01,02,03,04,05,06,07,08,09,10,11,12,1.0,1.0,1.0*30
$GPRMC,121445.600,A,5312.264,N,00547.440,E,015.6,089.2,110218,000.0,W*72
$GPGGA,121446.600,5312.264,N,00547.448,E,1,12,1.0,0.0,M,0.0,M,,*67
$GPGSA,A,3,01,02,03,04,05,06,07,08,09,10,11,12,1.0,1.0,1.0*30
$GPRMC,121446.600,A,5312.264,N,00547.448,E,015.6,089.2,110218,000.0,W*79
$GPGGA,121447.600,5312.264,N,00547.455,E,1,12,1.0,0.0,M,0.0,M,,*6A
$GPGSA,A,3,01,02,03,04,05,06,07,08,09,10,11,12,1.0,1.0,1.0*30
$GPRMC,121447.600,A,5312.264,N,00547.455,E,015.6,053.8,110218,000.0,W*79
$GPGGA,121448.600,5312.267,N,00547.459,E,1,12,1.0,0.0,M,0.0,M,,*6A
$GPGSA,A,3,01,02,03,04,05,06,07,08,09,10,11,12,1.0,1.0,1.0*30
$GPRMC,121448.600,A,5312.267,N,00547.459,E,015.6,053.8,110218,000.0,W*79
$GPGGA,121449.600,5312.271,N,00547.464,E,1,12,1.0,0.0,M,0.0,M,,*62
$GPGSA,A,3,01,02,03,04,05,06,07,08,09,10,11,12,1.0,1.0,1.0*30
$GPRMC,121449.600,A,5312.271,N,00547.464,E,015.6,053.8,110218,000.0,W*71
$GPGGA,121450.600,5312.274,N,00547.468,E,1,12,1.0,0.0,M,0.0,M,,*63
$GPGSA,A,3,01,02,03,04,05,06,07,08,09,10,11,12,1.0,1.0,1.0*30
$GPRMC,121450.600,A,5312.274,N,00547.468,E,015.5,053.8,110218,000.0,W*73
$GPGGA,121451.600,5312.277,N,00547.473,E,1,12,1.0,0.0,M,0.0,M,,*6B
$GPGSA,A,3,01,02,03,04,05,06,07,08,09,10,11,12,1.0,1.0,1.0*30
$GPRMC,121451.600,A,5312.277,N,00547.473,E,015.6,053.8,110218,000.0,W*78
$GPGGA,121452.600,5312.281,N,00547.478,E,1,12,1.0,0.0,M,0.0,M,,*6A
$GPGSA,A,3,01,02,03,04,05,06,07,08,09,10,11,12,1.0,1.0,1.0*30
$GPRMC,121452.600,A,5312.281,N,00547.478,E,015.6,053.8,110218,000.0,W*79
$GPGGA,121453.600,5312.284,N,00547.482,E,1,12,1.0,0.0,M,0.0,M,,*6B
$GPGSA,A,3,01,02,03,04,05,06,07,08,09,10,11,12,1.0,1.0,1.0*30
$GPRMC,121453.600,A,5312.284,N,00547.482,E,015.6,053.8,110218,000.0,W*78
$GPGGA,121454.600,5312.287,N,00547.487,E,1,12,1.0,0.0,M,0.0,M,,*6A
$GPGSA,A,3,01,02,03,04,05,06,07,08,09,10,11,12,1.0,1.0,1.0*30
$GPRMC,121454.600,A,5312.287,N,00547.487,E,015.6,053.8,110218,000.0,W*79
$GPGGA,121455.600,5312.291,N,00547.491,E,1,12,1.0,0.0,M,0.0,M,,*6B
$GPGSA,A,3,01,02,03,04,05,06,07,08,09,10,11,12,1.0,1.0,1.0*30
$GPRMC,121455.600,A,5312.291,N,00547.491,E,015.6,053.8,110218,000.0,W*78
$GPGGA,121456.600,5312.294,N,00547.496,E,1,12,1.0,0.0,M,0.0,M,,*6A
$GPGSA,A,3,01,02,03,04,05,06,07,08,09,10,11,12,1.0,1.0,1.0*30
$GPRMC,121456.600,A,5312.294,N,00547.496,E,015.6,053.8,110218,000.0,W*79
$GPGGA,121457.600,5312.297,N,00547.500,E,1,12,1.0,0.0,M,0.0,M,,*66
$GPGSA,A,3,01,02,03,04,05,06,07,08,09,10,11,12,1.0,1.0,1.0*30
$GPRMC,121457.600,A,5312.297,N,00547.500,E,015.6,053.8,110218,000.0,W*75
$GPGGA,121458.600,5312.301,N,00547.505,E,1,12,1.0,0.0,M,0.0,M,,*62
$GPGSA,A,3,01,02,03,04,05,06,07,08,09,10,11,12,1.0,1.0,1.0*30
$GPRMC,121458.600,A,5312.301,N,00547.505,E,015.5,053.8,110218,000.0,W*72
$GPGGA,121459.600,5312.304,N,00547.510,E,1,12,1.0,0.0,M,0.0,M,,*62
$GPGSA,A,3,01,02,03,04,05,06,07,08,09,10,11,12,1.0,1.0,1.0*30
$GPRMC,121459.600,A,5312.304,N,00547.510,E,015.6,053.8,110218,000.0,W*71
$GPGGA,121500.600,5312.307,N,00547.514,E,1,12,1.0,0.0,M,0.0,M,,*68
$GPGSA,A,3,01,02,03,04,05,06,07,08,09,10,11,12,1.0,1.0,1.0*30
$GPRMC,121500.600,A,5312.307,N,00547.514,E,015.6,053.8,110218,000.0,W*7B
$GPGGA,121501.600,5312.311,N,00547.519,E,1,12,1.0,0.0,M,0.0,M,,*63
$GPGSA,A,3,01,02,03,04,05,06,07,08,09,10,11,12,1.0,1.0,1.0*30
$GPRMC,121501.600,A,5312.311,N,00547.519,E,015.6,053.8,110218,000.0,W*70
$GPGGA,121502.600,5312.314,N,00547.523,E,1,12,1.0,0.0,M,0.0,M,,*6C
$GPGSA,A,3,01,02,03,04,05,06,07,08,09,10,11,12,1.0,1.0,1.0*30
$GPRMC,121502.600,A,5312.314,N,00547.523,E,015.6,053.8,110218,000.0,W*7F
$GPGGA,121503.600,5312.317,N,00547.528,E,1,12,1.0,0.0,M,0.0,M,,*65
$GPGSA,A,3,01,02,03,04,05,06,07,08,09,10,11,12,1.0,1.0,1.0*30
$GPRMC,121503.600,A,5312.317,N,00547.528,E,015.6,053.8,110218,000.0,W*76
$GPGGA,121504.600,5312.321,N,00547.533,E,1,12,1.0,0.0,M,0.0,M,,*6D
$GPGSA,A,3,01,02,03,04,05,06,07,08,09,10,11,12,1.0,1.0,1.0*30
$GPRMC,121504.600,A,5312.321,N,00547.533,E,015.6,053.8,110218,000.0,W*7E
$GPGGA,121505.600,5312.324,N,00547.537,E,1,12,1.0,0.0,M,0.0,M,,*6D
$GPGSA,A,3,01,02,03,04,05,06,07,08,09,10,11,12,1.0,1.0,1.0*30
$GPRMC,121505.600,A,5312.324,N,00547.537,E,015.6,053.8,110218,000.0,W*7E
$GPGGA,121506.600,5312.327,N,00547.542,E,1,12,1.0,0.0,M,0.0,M,,*6F
$GPGSA,A,3,01,02,03,04,05,06,07,08,09,10,11,12,1.0,1.0,1.0*30
$GPRMC,121506.600,A,5312.327,N,00547.542,E,015.6,053.8,110218,000.0,W*7C
$GPGGA,121507.600,5312.331,N,00547.546,E,1,12,1.0,0.0,M,0.0,M,,*6D
$GPGSA,A,3,01,02,03,04,05,06,07,08,09,10,11,12,1.0,1.0,1.0*30
$GPRMC,121507.600,A,5312.331,N,00547.546,E,015.6,053.8,110218,000.0,W*7E
$GPGGA,121508.600,5312.334,N,00547.551,E,1,12,1.0,0.0,M,0.0,M,,*61
$GPGSA,A,3,01,02,03,04,05,06,07,08,09,10,11,12,1.0,1.0,1.0*30
$GPRMC,121508.600,A,5312.334,N,00547.551,E,015.6,053.8,110218,000.0,W*72
$GPGGA,121509.600,5312.337,N,00547.555,E,1,12,1.0,0.0,M,0.0,M,,*67
$GPGSA,A,3,01,02,03,04,05,06,07,08,09,10,11,12,1.0,1.0,1.0*30
$GPRMC,121509.600,A,5312.337,N,00547.555,E,015.6,053.8,110218,000.0,W*74
$GPGGA,121510.600,5312.341,N,00547.560,E,1,12,1.0,0.0,M,0.0,M,,*68
$GPGSA,A,3,01,02,03,04,05,06,07,08,09,10,11,12,1.0,1.0,1.0*30
$GPRMC,121510.600,A,5312.341,N,00547.560,E,015.6,099.9,110218,000.0,W*7C
$GPGGA,121511.600,5312.339,N,00547.567,E,1,12,1.0,0.0,M,0.0,M,,*61
$GPGSA,A,3,01,02,03,04,05,06,07,08,09,10,11,12,1.0,1.0,1.0*30
$GPRMC,121511.600,A,5312.339,N,00547.567,E,015.6,099.9,110218,000.0,W*75
$GPGGA,121512.600,5312.338,N,00547.574,E,1,12,1.0,0.0,M,0.0,M,,*61
$GPGSA,A,3,01,02,03,04,05,06,07,08,09,10,11,12,1.0,1.0,1.0*30
$GPRMC,121512.600,A,5312.338,N,00547.574,E,015.6,099.9,110218,000.0,W*75
$GPGGA,121513.600,5312.337,N,00547.581,E,1,12,1.0,0.0,M,0.0,M,,*65
$GPGSA,A,3,01,02,03,04,05,06,07,08,09,10,11,12,1.0,1.0,1.0*30
$GPRMC,121513.600,A,5312.337,N,00547.581,E,015.6,099.9,110218,000.0,W*71
$GPGGA,121514.600,5312.336,N,00547.588,E,1,12,1.0,0.0,M,0.0,M,,*6A
$GPGSA,A,3,01,02,03,04,05,06,07,08,09,10,11,12,1.0,1.0,1.0*30
$GPRMC,121514.600,A,5312.336,N,00547.588,E,015.6,099.9,110218,000.0,W*7E
$GPGGA,121515.600,5312.335,N,00547.595,E,1,12,1.0,0.0,M,0.0,M,,*64
$GPGSA,A,3,01,02,03,04,05,06,07,08,09,10,11,12,1.0,1.0,1.0*30
$GPRMC,121515.600,A,5312.335,N,00547.595,E,015.6,099.9,110218,000.0,W*70
$GPGGA,121516.600,5312.333,N,00547.602,E,1,12,1.0,0.0,M,0.0,M,,*6C
$GPGSA,A,3,01,02,03,04,05,06,07,08,09,10,11,12,1.0,1.0,1.0*30
$GPRMC,121516.600,A,5312.333,N,00547.602,E,015.6,099.9,110218,000.0,W*78
$GPGGA,121517.600,5312.332,N,00547.608,E,1,12,1.0,0.0,M,0.0,M,,*66
$GPGSA,A,3,01,02,03,04,05,06,07,08,09,10,11,12,1.0,1.0,1.0*30
$GPRMC,121517.600,A,5312.332,N,00547.608,E,015.6,099.9,110218,000.0,W*72
$GPGGA,121518.600,5312.331,N,00547.615,E,1,12,1.0,0.0,M,0.0,M,,*66
$GPGSA,A,3,01,02,03,04,05,06,07,08,09,10,11,12,1.0,1.0,1.0*30
$GPRMC,121518.600,A,5312.331,N,00547.615,E,015.6,099.9,110218,000.0,W*72
$GPGGA,121519.600,5312.330,N,00547.622,E,1,12,1.0,0.0,M,0.0,M,,*62
$GPGSA,A,3,01,02,03,04,05,06,07,08,09,10,11,12,1.0,1.0,1.0*30
$GPRMC,121519.600,A,5312.330,N,00547.622,E,015.6,099.9,110218,000.0,W*76
$GPGGA,121520.600,5312.329,N,00547.629,E,1,12,1.0,0.0,M,0.0,M,,*6B
$GPGSA,A,3,01,02,03,04,05,06,07,08,09,10,11,12,1.0,1.0,1.0*30
$GPRMC,121520.600,A,5312.329,N,00547.629,E,015.6,099.9,110218,000.0,W*7F
$GPGGA,121521.600,5312.327,N,00547.636,E,1,12,1.0,0.0,M,0.0,M,,*6A
$GPGSA,A,3,01,02,03,04,05,06,07,08,09,10,11,12,1.0,1.0,1.0*30
$GPRMC,121521.600,A,5312.327,N,00547.636,E,015.6,099.9,110218,000.0,W*7E
$GPGGA,121522.600,5312.326,N,00547.643,E,1,12,1.0,0.0,M,0.0,M,,*6A
$GPGSA,A,3,01,02,03,04,05,06,07,08,09,10,11,12,1.0,1.0,1.0*30
$GPRMC,121522.600,A,5312.326,N,00547.643,E,015.6,099.9,110218,000.0,W*7E
$GPGGA,121523.600,5312.325,N,00547.650,E,1,12,1.0,0.0,M,0.0,M,,*6A
$GPGSA,A,3,01,02,03,04,05,06,07,08,09,10,11,12,1.0,1.0,1.0*30
$GPRMC,121523.600,A,5312.325,N,00547.650,E,015.6,099.9,110218,000.0,W*7E
$GPGGA,121524.600,5312.324,N,00547.657,E,1,12,1.0,0.0,M,0.0,M,,*6B
$GPGSA,A,3,01,02,03,04,05,06,07,08,09,10,11,12,1.0,1.0,1.0*30
$GPRMC,121524.600,A,5312.324,N,00547.657,E,015.6,099.9,110218,000.0,W*7F
$GPGGA,121525.600,5312.323,N,00547.664,E,1,12,1.0,0.0,M,0.0,M,,*6D
$GPGSA,A,3,01,02,03,04,05,06,07,08,09,10,11,12,1.0,1.0,1.0*30
$GPRMC,121525.600,A,5312.323,N,00547.664,E,015.5,099.9,110218,000.0,W*7A
$GPGGA,121526.600,5312.321,N,00547.671,E,1,12,1.0,0.0,M,0.0,M,,*68
$GPGSA,A,3,01,02,03,04,05,06,07,08,09,10,11,12,1.0,1.0,1.0*30
$GPRMC,121526.600,A,5312.321,N,00547.671,E,015.6,099.9,110218,000.0,W*7C
$GPGGA,121527.600,5312.320,N,00547.678,E,1,12,1.0,0.0,M,0.0,M,,*61
$GPGSA,A,3,01,02,03,04,05,06,07,08,09,10,11,12,1.0,1.0,1.0*30
$GPRMC,121527.600,A,5312.320,N,00547.678,E,015.5,099.9,110218,000.0,W*76
$GPGGA,121528.600,5312.319,N,00547.685,E,1,12,1.0,0.0,M,0.0,M,,*66
$GPGSA,A,3,01,02,03,04,05,06,07,08,09,10,11,12,1.0,1.0,1.0*30
$GPRMC,121528.600,A,5312.319,N,00547.685,E,015.6,099.9,110218,000.0,W*72
$GPGGA,121529.600,5312.318,N,00547.692,E,1,12,1.0,0.0,M,0.0,M,,*60
$GPGSA,A,3,01,02,03,04,05,06,07,08,09,10,11,12,1.0,1.0,1.0*30
$GPRMC,121529.600,A,5312.318,N,00547.692,E,015.6,099.9,110218,000.0,W*74
$GPGGA,121530.600,5312.317,N,00547.698,E,1,12,1.0,0.0,M,0.0,M,,*6D
$GPGSA,A,3,01,02,03,04,05,06,07,08,09,10,11,12,1.0,1.0,1.0*30
$GPRMC,121530.600,A,5312.317,N,00547.698,E,015.6,099.9,110218,000.0,W*79
$GPGGA,121531.600,5312.315,N,00547.705,E,1,12,1.0,0.0,M,0.0,M,,*6B
$GPGSA,A,3,01,02,03,04,05,06,07,08,09,10,11,12,1.0,1.0,1.0*30
$GPRMC,121531.600,A,5312.315,N,00547.705,E,015.6,058.8,110218,000.0,W*73
$GPGGA,121532.600,5312.318,N,00547.710,E,1,12,1.0,0.0,M,0.0,M,,*61
$GPGSA,A,3,01,02,03,04,05,06,07,08,09,10,11,12,1.0,1.0,1.0*30
$GPRMC,121532.600,A,5312.318,N,00547.710,E,015.6,058.8,110218,000.0,W*79
$GPGGA,121533.600,5312.322,N,00547.716,E,1,12,1.0,0.0,M,0.0,M,,*6F
$GPGSA,A,3,01,02,03,04,05,06,07,08,09,10,11,12,1.0,1.0,1.0*30
$GPRMC,121533.600,A,5312.322,N,00547.716,E,015.6,058.8,110218,000.0,W*77
$GPGGA,121534.600,5312.325,N,00547.721,E,1,12,1.0,0.0,M,0.0,M,,*6B
$GPGSA,A,3,01,02,03,04,05,06,07,08,09,10,11,12,1.0,1.0,1.0*30
$GPRMC,121534.600,A,5312.325,N,00547.721,E,015.6,058.8,110218,000.0,W*73
$GPGGA,121535.600,5312.328,N,00547.726,E,1,12,1.0,0.0,M,0.0,M,,*60
$GPGSA,A,3,01,02,03,04,05,06,07,08,09,10,11,12,1.0,1.0,1.0*30
$GPRMC,121535.600,A,5312.328,N,00547.726,E,015.6,058.8,110218,000.0,W*78
$GPGGA,121536.600,5312.331,N,00547.731,E,1,12,1.0,0.0,M,0.0,M,,*6D
$GPGSA,A,3,01,02,03,04,05,06,07,08,09,10,11,12,1.0,1.0,1.0*30
$GPRMC,121536.600,A,5312.331,N,00547.731,E,015.6,058.8,110218,000.0,W*75
$GPGGA,121537.600,5312.334,N,00547.736,E,1,12,1.0,0.0,M,0.0,M,,*6E
$GPGSA,A,3,01,02,03,04,05,06,07,08,09,10,11,12,1.0,1.0,1.0*30
$GPRMC,121537.600,A,5312.334,N,00547.736,E,015.6,058.8,110218,000.0,W*76
$GPGGA,121538.600,5312.337,N,00547.741,E,1,12,1.0,0.0,M,0.0,M,,*62
$GPGSA,A,3,01,02,03,04,05,06,07,08,09,10,11,12,1.0,1.0,1.0*30
$GPRMC,121538.600,A,5312.337,N,00547.741,E,015.6,058.8,110218,000.0,W*7A
$GPGGA,121539.600,5312.340,N,00547.746,E,1,12,1.0,0.0,M,0.0,M,,*64
$GPGSA,A,3,01,02,03,04,05,06,07,08,09,10,11,12,1.0,1.0,1.0*30
$GPRMC,121539.600,A,5312.340,N,00547.746,E,015.6,058.8,110218,000.0,W*7C
$GPGGA,121540.600,5312.343,N,00547.751,E,1,12,1.0,0.0,M,0.0,M,,*6F
$GPGSA,A,3,01,02,03,04,05,06,07,08,09,10,11,12,1.0,1.0,1.0*30
$GPRMC,121540.600,A,5312.343,N,00547.751,E,015.5,058.8,110218,000.0,W*74
$GPGGA,121541.600,5312.346,N,00547.756,E,1,12,1.0,0.0,M,0.0,M,,*6C
$GPGSA,A,3,01,02,03,04,05,06,07,08,09,10,11,12,1.0,1.0,1.0*30
$GPRMC,121541.600,A,5312.346,N,00547.756,E,015.6,058.8,110218,000.0,W*74
$GPGGA,121542.600,5312.349,N,00547.761,E,1,12,1.0,0.0,M,0.0,M,,*64
$GPGSA,A,3,01,02,03,04,05,06,07,08,09,10,11,12,1.0,1.0,1.0*30
$GPRMC,121542.600,A,5312.349,N,00547.761,E,015.6,058.8,110218,000.0,W*7C
$GPGGA,121543.600,5312.352,N,00547.766,E,1,12,1.0,0.0,M,0.0,M,,*68
$GPGSA,A,3,01,02,03,04,05,06,07,08,09,10,11,12,1.0,1.0,1.0*30
$GPRMC,121543.600,A,5312.352,N,00547.766,E,015.5,058.8,110218,000.0,W*73
$GPGGA,121544.600,5312.355,N,00547.771,E,1,12,1.0,0.0,M,0.0,M,,*6E
$GPGSA,A,3,01,02,03,04,05,06,07,08,09,10,11,12,1.0,1.0,1.0*30
$GPRMC,121544.600,A,5312.355,N,00547.771,E,015.6,058.8,110218,000.0,W*76
$GPGGA,121545.600,5312.358,N,00547.776,E,1,12,1.0,0.0,M,0.0,M,,*65
$GPGSA,A,3,01,02,03,04,05,06,07,08,09,10,11,12,1.0,1.0,1.0*30
$GPRMC,121545.600,A,5312.358,N,00547.776,E,015.6,058.8,110218,000.0,W*7D
$GPGGA,121546.600,5312.361,N,00547.782,E,1,12,1.0,0.0,M,0.0,M,,*67
$GPGSA,A,3,01,02,03,04,05,06,07,08,09,10,11,12,1.0,1.0,1.0*30
$GPRMC,121546.600,A,5312.361,N,00547.782,E,015.5,058.8,110218,000.0,W*7C
$GPGGA,121547.600,5312.364,N,00547.787,E,1,12,1.0,0.0,M,0.0,M,,*66
$GPGSA,A,3,01,02,03,04,05,06,07,08,09,10,11,12,1.0,1.0,1.0*30
$GPRMC,121547.600,A,5312.364,N,00547.787,E,015.6,058.8,110218,000.0,W*7E
$GPGGA,121548.600,5312.368,N,00547.792,E,1,12,1.0,0.0,M,0.0,M,,*61
$GPGSA,A,3,01,02,03,04,05,06,07,08,09,10,11,12,1.0,1.0,1.0*30
$GPRMC,121548.600,A,5312.368,N,00547.792,E,015.6,058.8,110218,000.0,W*79
$GPGGA,121549.600,5312.371,N,00547.797,E,1,12,1.0,0.0,M,0.0,M,,*6D
$GPGSA,A,3,01,02,03,04,05,06,07,08,09,10,11,12,1.0,1.0,1.0*30
$GPRMC,121549.600,A,5312.371,N,00547.797,E,015.6,058.8,110218,000.0,W*75
$GPGGA,121550.600,5312.374,N,00547.802,E,1,12,1.0,0.0,M,0.0,M,,*63
$GPGSA,A,3,01,02,03,04,05,06,07,08,09,10,11,12,1.0,1.0,1.0*30
$GPRMC,121550.600,A,5312.374,N,00547.802,E,015.5,058.8,110218,000.0,W*78
$GPGGA,121551.600,5312.377,N,00547.807,E,1,12,1.0,0.0,M,0.0,M,,*64
$GPGSA,A,3,01,02,03,04,05,06,07,08,09,10,11,12,1.0,1.0,1.0*30
$GPRMC,121551.600,A,5312.377,N,00547.807,E,015.5,058.8,110218,000.0,W*7F
$GPGGA,121552.600,5312.380,N,00547.812,E,1,12,1.0,0.0,M,0.0,M,,*6B
$GPGSA,A,3,01,02,03,04,05,06,07,08,09,10,11,12,1.0,1.0,1.0*30
$GPRMC,121552.600,A,5312.380,N,00547.812,E,015.5,058.8,110218,000.0,W*70
$GPGGA,121553.600,5312.383,N,00547.817,E,1,12,1.0,0.0,M,0.0,M,,*6C
$GPGSA,A,3,01,02,03,04,05,06,07,08,09,10,11,12,1.0,1.0,1.0*30
$GPRMC,121553.600,A,5312.383,N,00547.817,E,015.6,058.8,110218,000.0,W*74
$GPGGA,121554.600,5312.386,N,00547.822,E,1,12,1.0,0.0,M,0.0,M,,*68
$GPGSA,A,3,01,02,03,04,05,06,07,08,09,10,11,12,1.0,1.0,1.0*30
$GPRMC,121554.600,A,5312.386,N,00547.822,E,015.6,058.8,110218,000.0,W*70
$GPGGA,121555.600,5312.389,N,00547.827,E,1,12,1.0,0.0,M,0.0,M,,*63
$GPGSA,A,3,01,02,03,04,05,06,07,08,09,10,11,12,1.0,1.0,1.0*30
$GPRMC,121555.600,A,5312.389,N,00547.827,E,015.5,058.8,110218,000.0,W*78
$GPGGA,121556.600,5312.392,N,00547.832,E,1,12,1.0,0.0,M,0.0,M,,*6E
$GPGSA,A,3,01,02,03,04,05,06,07,08,09,10,11,12,1.0,1.0,1.0*30
$GPRMC,121556.600,A,5312.392,N,00547.832,E,015.5,058.8,110218,000.0,W*75
$GPGGA,121557.600,5312.395,N,00547.837,E,1,12,1.0,0.0,M,0.0,M,,*6D
$GPGSA,A,3,01,02,03,04,05,06,07,08,09,10,11,12,1.0,1.0,1.0*30
$GPRMC,121557.600,A,5312.395,N,00547.837,E,015.6,058.8,110218,000.0,W*75
$GPGGA,121558.600,5312.398,N,00547.842,E,1,12,1.0,0.0,M,0.0,M,,*6D
$GPGSA,A,3,01,02,03,04,05,06,07,08,09,10,11,12,1.0,1.0,1.0*30
$GPRMC,121558.600,A,5312.398,N,00547.842,E,015.5,058.8,110218,000.0,W*76
$GPGGA,121559.600,5312.401,N,00547.847,E,1,12,1.0,0.0,M,0.0,M,,*6E
$GPGSA,A,3,01,02,03,04,05,06,07,08,09,10,11,12,1.0,1.0,1.0*30
$GPRMC,121559.600,A,5312.401,N,00547.847,E,015.6,058.8,110218,000.0,W*76
$GPGGA,121600.600,5312.404,N,00547.853,E,1,12,1.0,0.0,M,0.0,M,,*61
$GPGSA,A,3,01,02,03,04,05,06,07,08,09,10,11,12,1.0,1.0,1.0*30
$GPRMC,121600.600,A,5312.404,N,00547.853,E,015.6,058.8,110218,000.0,W*79
$GPGGA,121601.600,5312.407,N,00547.858,E,1,12,1.0,0.0,M,0.0,M,,*68
$GPGSA,A,3,01,02,03,04,05,06,07,08,09,10,11,12,1.0,1.0,1.0*30
$GPRMC,121601.600,A,5312.407,N,00547.858,E,015.6,058.8,110218,000.0,W*70
$GPGGA,121602.600,5312.410,N,00547.863,E,1,12,1.0,0.0,M,0.0,M,,*65
$GPGSA,A,3,01,02,03,04,05,06,07,08,09,10,11,12,1.0,1.0,1.0*30
$GPRMC,121602.600,A,5312.410,N,00547.863,E,015.5,058.8,110218,000.0,W*7E
$GPGGA,121603.600,5312.414,N,00547.868,E,1,12,1.0,0.0,M,0.0,M,,*6B
$GPGSA,A,3,01,02,03,04,05,06,07,08,09,10,11,12,1.0,1.0,1.0*30
$GPRMC,121603.600,A,5312.414,N,00547.868,E,015.5,058.8,110218,000.0,W*70
