$GPGGA,121402.600,5312.168,N,00547.323,E,1,12,1.0,0.0,M,0.0,M,,*62
$GPGSA,A,3,01,02,03,04,05,06,07,08,09,10,11,12,1.0,1.0,1.0*30
$GPRMC,121402.600,A,5312.168,N,00547.323,E,015.6,330.8,110218,000.0,W*77
$GPGGA,121403.600,5312.172,N,00547.321,E,1,12,1.0,0.0,M,0.0,M,,*6A
$GPGSA,A,3,01,02,03,04,05,06,07,08,09,10,11,12,1.0,1.0,1.0*30
$GPRMC,121403.600,A,5312.172,N,00547.321,E,015.6,330.8,110218,000.0,W*7F
$GPGGA,121404.600,5312.177,N,00547.319,E,1,12,1.0,0.0,M,0.0,M,,*63
$GPGSA,A,3,01,02,03,04,05,06,07,08,09,10,11,12,1.0,1.0,1.0*30
$GPRMC,121404.600,A,5312.177,N,00547.319,E,015.6,330.8,110218,000.0,W*76
$GPGGA,121405.600,5312.181,N,00547.316,E,1,12,1.0,0.0,M,0.0,M,,*64
$GPGSA,A,3,01,02,03,04,05,06,07,08,09,10,11,12,1.0,1.0,1.0*30
$GPRMC,121405.600,A,5312.181,N,00547.316,E,015.6,330.8,110218,000.0,W*71
$GPGGA,121406.600,5312.185,N,00547.314,E,1,12,1.0,0.0,M,0.0,M,,*61
$GPGSA,A,3,01,02,03,04,05,06,07,08,09,10,11,12,1.0,1.0,1.0*30
$GPRMC,121406.600,A,5312.185,N,00547.314,E,015.6,330.8,110218,000.0,W*74
$GPGGA,121407.600,5312.189,N,00547.312,E,1,12,1.0,0.0,M,0.0,M,,*6A
$GPGSA,A,3,01,02,03,04,05,06,07,08,09,10,11,12,1.0,1.0,1.0*30
$GPRMC,121407.600,A,5312.189,N,00547.312,E,015.6,330.8,110218,000.0,W*7F
$GPGGA,121408.600,5312.193,N,00547.310,E,1,12,1.0,0.0,M,0.0,M,,*6C
$GPGSA,A,3,01,02,03,04,05,06,07,08,09,10,11,12,1.0,1.0,1.0*30
$GPRMC,121408.600,A,5312.193,N,00547.310,E,015.6,330.8,110218,000.0,W*79
$GPGGA,121409.600,5312.197,N,00547.307,E,1,12,1.0,0.0,M,0.0,M,,*6F
$GPGSA,A,3,01,02,03,04,05,06,07,08,09,10,11,12,1.0,1.0,1.0*30
$GPRMC,121409.600,A,5312.197,N,00547.307,E,015.6,330.8,110218,000.0,W*7A
$GPGGA,121410.600,5312.201,N,00547.305,E,1,12,1.0,0.0,M,0.0,M,,*69
$GPGSA,A,3,01,02,03,04,05,06,07,08,09,10,11,12,1.0,1.0,1.0*30
$GPRMC,121410.600,A,5312.201,N,00547.305,E,015.6,330.8,110218,000.0,W*7C
$GPGGA,121411.600,5312.205,N,00547.303,E,1,12,1.0,0.0,M,0.0,M,,*6A
$GPGSA,A,3,01,02,03,04,05,06,07,08,09,10,11,12,1.0,1.0,1.0*30
$GPRMC,121411.600,A,5312.205,N,00547.303,E,015.6,330.8,110218,000.0,W*7F
$GPGGA,121412.600,5312.209,N,00547.300,E,1,12,1.0,0.0,M,0.0,M,,*66
$GPGSA,A,3,01,02,03,04,05,06,07,08,09,10,11,12,1.0,1.0,1.0*30
$GPRMC,121412.600,A,5312.209,N,00547.300,E,015.6,330.8,110218,000.0,W*73
$GPGGA,121413.600,5312.213,N,00547.298,E,1,12,1.0,0.0,M,0.0,M,,*6C
$GPGSA,A,3,01,02,03,04,05,06,07,08,09,10,11,12,1.0,1.0,1.0*30
$GPRMC,121413.600,A,5312.213,N,00547.298,E,015.6,330.8,110218,000.0,W*79
$GPGGA,121414.600,5312.217,N,00547.296,E,1,12,1.0,0.0,M,0.0,M,,*61
$GPGSA,A,3,01,02,03,04,05,06,07,08,09,10,11,12,1.0,1.0,1.0*30
$GPRMC,121414.600,A,5312.217,N,00547.296,E,015.6,330.8,110218,000.0,W*74
$GPGGA,121415.600,5312.222,N,00547.293,E,1,12,1.0,0.0,M,0.0,M,,*63
$GPGSA,A,3,01,02,03,04,05,06,07,08,09,10,11,12,1.0,1.0,1.0*30
$GPRMC,121415.600,A,5312.222,N,00547.293,E,015.6,330.8,110218,000.0,W*76
$GPGGA,121416.600,5312.226,N,00547.291,E,1,12,1.0,0.0,M,0.0,M,,*66
$GPGSA,A,3,01,02,03,04,05,06,07,08,09,10,11,12,1.0,1.0,1.0*30
$GPRMC,121416.600,A,5312.226,N,00547.291,E,015.6,330.8,110218,000.0,W*73
$GPGGA,121417.600,5312.230,N,00547.289,E,1,12,1.0,0.0,M,0.0,M,,*69
$GPGSA,A,3,01,02,03,04,05,06,07,08,09,10,11,12,1.0,1.0,1.0*30
$GPRMC,121417.600,A,5312.230,N,00547.289,E,015.6,330.8,110218,000.0,W*7C
$GPGGA,121418.600,5312.234,N,00547.287,E,1,12,1.0,0.0,M,0.0,M,,*6C
$GPGSA,A,3,01,02,03,04,05,06,07,08,09,10,11,12,1.0,1.0,1.0*30
$GPRMC,121418.600,A,5312.234,N,00547.287,E,015.6,330.8,110218,000.0,W*79
$GPGGA,121419.600,5312.238,N,00547.284,E,1,12,1.0,0.0,M,0.0,M,,*62
$GPGSA,A,3,01,02,03,04,05,06,07,08,09,10,11,12,1.0,1.0,1.0*30
$GPRMC,121419.600,A,5312.238,N,00547.284,E,015.6,330.8,110218,000.0,W*77
$GPGGA,121420.600,5312.242,N,00547.282,E,1,12,1.0,0.0,M,0.0,M,,*63
$GPGSA,A,3,01,02,03,04,05,06,07,08,09,10,11,12,1.0,1.0,1.0*30
$GPRMC,121420.600,A,5312.242,N,00547.282,E,015.5,035.6,110218,000.0,W*7D
$GPGGA,121421.600,5312.246,N,00547.285,E,1,12,1.0,0.0,M,0.0,M,,*61
$GPGSA,A,3,01,02,03,04,05,06,07,08,09,10,11,12,1.0,1.0,1.0*30
$GPRMC,121421.600,A,5312.246,N,00547.285,E,015.6,035.6,110218,000.0,W*7C
$GPGGA,121422.600,5312.250,N,00547.288,E,1,12,1.0,0.0,M,0.0,M,,*68
$GPGSA,A,3,01,02,03,04,05,06,07,08,09,10,11,12,1.0,1.0,1.0*30
$GPRMC,121422.600,A,5312.250,N,00547.288,E,015.5,035.6,110218,000.0,W*76
$GPGGA,121423.600,5312.254,N,00547.290,E,1,12,1.0,0.0,M,0.0,M,,*64
$GPGSA,A,3,01,02,03,04,05,06,07,08,09,10,11,12,1.0,1.0,1.0*30
$GPRMC,121423.600,A,5312.254,N,00547.290,E,015.5,035.6,110218,000.0,W*7A
$GPGGA,121424.600,5312.258,N,00547.293,E,1,12,1.0,0.0,M,0.0,M,,*6C
$GPGSA,A,3,01,02,03,04,05,06,07,08,09,10,11,12,1.0,1.0,1.0*30
$GPRMC,121424.600,A,5312.258,N,00547.293,E,015.5,035.6,110218,000.0,W*72
$GPGGA,121425.600,5312.262,N,00547.296,E,1,12,1.0,0.0,M,0.0,M,,*61
$GPGSA,A,3,01,02,03,04,05,06,07,08,09,10,11,12,1.0,1.0,1.0*30
$GPRMC,121425.600,A,5312.262,N,00547.296,E,015.6,089.2,110218,000.0,W*7F
$GPGGA,121426.600,5312.262,N,00547.303,E,1,12,1.0,0.0,M,0.0,M,,*6F
$GPGSA,A,3,01,02,03,04,05,06,07,08,09,10,11,12,1.0,1.0,1.0*30
$GPRMC,121426.600,A,5312.262,N,00547.303,E,015.6,089.2,110218,000.0,W*71
$GPGGA,121427.600,5312.262,N,00547.311,E,1,12,1.0,0.0,M,0.0,M,,*6D
$GPGSA,A,3,01,02,03,04,05,06,07,08,09,10,11,12,1.0,1.0,1.0*30
$GPRMC,121427.600,A,5312.262,N,00547.311,E,015.6,089.2,110218,000.0,W*73
$GPGGA,121428.600,5312.262,N,00547.318,E,1,12,1.0,0.0,M,0.0,M,,*6B
$GPGSA,A,3,01,02,03,04,05,06,07,08,09,10,11,12,1.0,1.0,1.0*30
$GPRMC,121428.600,A,5312.262,N,00547.318,E,015.5,089.2,110218,000.0,W*76
$GPGGA,121429.600,5312.262,N,00547.325,E,1,12,1.0,0.0,M,0.0,M,,*64
